t,wall,state,action,arm,b,emerg,raw_thr,raw_roll,raw_pitch,raw_yaw,sent_roll,sent_pitch,sent_gaz,sent_yaw,roll_deg,pitch_deg,yaw_deg,alt_mm,m1,m2,m3,m4
3.232,1783028597.219,DISARMED,idle,-1.00,0.00,-1.00,0.000,0.000,0.000,0.000,,,,,-1.645,-0.824,-0.697,0,0,0,0,0
3.239,1783028597.227,DISARMED,idle,-1.00,0.00,-1.00,0.000,0.000,0.000,0.000,,,,,-1.645,-0.824,-0.697,0,0,0,0,0
3.273,1783028597.261,DISARMED,idle,-1.00,0.00,-1.00,0.000,0.000,0.000,0.000,,,,,-1.653,-0.814,-0.695,0,0,0,0,0
3.307,1783028597.294,DISARMED,idle,-1.00,0.00,-1.00,0.000,0.000,0.000,0.000,,,,,-1.653,-0.814,-0.695,0,0,0,0,0
3.347,1783028597.334,DISARMED,idle,-1.00,0.00,-1.00,0.000,0.000,0.000,0.000,,,,,-1.653,-0.814,-0.695,0,0,0,0,0
3.374,1783028597.361,DISARMED,idle,-1.00,0.00,-1.00,0.000,0.000,0.000,0.000,,,,,-1.653,-0.814,-0.695,0,0,0,0,0
3.418,1783028597.405,DISARMED,idle,-1.00,0.00,-1.00,0.000,0.000,0.000,0.000,,,,,-1.653,-0.814,-0.695,0,0,0,0,0
3.441,1783028597.429,DISARMED,idle,-1.00,0.00,-1.00,0.000,0.000,0.000,0.000,,,,,-1.653,-0.814,-0.695,0,0,0,0,0
3.476,1783028597.463,DISARMED,idle,-1.00,0.00,-1.00,0.000,0.000,0.000,0.000,,,,,-1.663,-0.796,-0.7,0,0,0,0,0
3.509,1783028597.497,DISARMED,idle,-1.00,0.00,-1.00,0.000,0.000,0.000,0.000,,,,,-1.663,-0.796,-0.7,0,0,0,0,0
3.544,1783028597.532,DISARMED,idle,-1.00,0.00,-1.00,0.000,0.000,0.000,0.000,,,,,-1.666,-0.783,-0.7,0,0,0,0,0
3.578,1783028597.565,DISARMED,idle,-1.00,0.00,-1.00,0.000,0.000,0.000,0.000,,,,,-1.668,-0.782,-0.7,0,0,0,0,0
3.611,1783028597.599,DISARMED,idle,-1.00,0.00,-1.00,0.000,0.000,0.000,0.000,,,,,-1.668,-0.782,-0.7,0,0,0,0,0
3.644,1783028597.632,DISARMED,idle,-1.00,0.00,-1.00,0.000,0.000,0.000,0.000,,,,,-1.668,-0.782,-0.7,0,0,0,0,0
3.679,1783028597.667,DISARMED,idle,-1.00,0.00,-1.00,0.000,0.000,0.000,0.000,,,,,-1.668,-0.782,-0.7,0,0,0,0,0
3.713,1783028597.701,DISARMED,idle,-1.00,0.00,-1.00,0.000,0.000,0.000,0.000,,,,,-1.668,-0.782,-0.7,0,0,0,0,0
3.747,1783028597.734,DISARMED,idle,-1.00,0.00,-1.00,0.000,0.000,0.000,0.000,,,,,-1.671,-0.786,-0.701,0,0,0,0,0
3.780,1783028597.768,DISARMED,idle,-1.00,0.00,-1.00,0.000,0.000,0.000,0.000,,,,,-1.666,-0.789,-0.702,0,0,0,0,0
3.814,1783028597.801,DISARMED,idle,-1.00,0.00,-1.00,0.000,0.000,0.000,0.000,,,,,-1.666,-0.789,-0.702,0,0,0,0,0
3.848,1783028597.835,DISARMED,idle,-1.00,0.00,-1.00,0.000,0.000,0.000,0.000,,,,,-1.666,-0.789,-0.702,0,0,0,0,0
3.881,1783028597.869,DISARMED,idle,-1.00,0.00,-1.00,0.000,0.000,0.000,0.000,,,,,-1.666,-0.789,-0.702,0,0,0,0,0
3.915,1783028597.902,DISARMED,idle,-1.00,0.00,-1.00,0.000,0.000,0.000,0.000,,,,,-1.666,-0.789,-0.702,0,0,0,0,0
3.949,1783028597.936,DISARMED,idle,-1.00,0.00,-1.00,0.000,0.000,0.000,0.000,,,,,-1.656,-0.789,-0.703,0,0,0,0,0
3.982,1783028597.970,DISARMED,idle,-1.00,0.00,-1.00,0.000,0.000,0.000,0.000,,,,,-1.658,-0.791,-0.705,0,0,0,0,0
4.017,1783028598.004,DISARMED,idle,-1.00,0.00,-1.00,0.000,0.000,0.000,0.000,,,,,-1.658,-0.791,-0.705,0,0,0,0,0
4.050,1783028598.038,DISARMED,idle,-1.00,0.00,-1.00,0.000,0.000,0.000,0.000,,,,,-1.658,-0.791,-0.705,0,0,0,0,0
4.085,1783028598.072,DISARMED,idle,-1.00,0.00,-1.00,0.000,0.000,0.000,0.000,,,,,-1.669,-0.791,-0.706,0,0,0,0,0
4.119,1783028598.106,DISARMED,idle,-1.00,0.00,-1.00,0.000,0.000,0.000,0.000,,,,,-1.67,-0.78,-0.705,0,0,0,0,0
4.153,1783028598.141,DISARMED,idle,-1.00,0.00,-1.00,0.000,0.000,0.000,0.000,,,,,-1.67,-0.78,-0.705,0,0,0,0,0
4.188,1783028598.175,DISARMED,idle,-1.00,0.00,-1.00,0.000,0.000,0.000,0.000,,,,,-1.673,-0.778,-0.703,0,0,0,0,0
4.221,1783028598.208,DISARMED,idle,-1.00,0.00,-1.00,0.000,0.000,0.000,0.000,,,,,-1.673,-0.778,-0.703,0,0,0,0,0
4.255,1783028598.243,DISARMED,idle,-1.00,0.00,-1.00,0.000,0.000,0.000,0.000,,,,,-1.671,-0.774,-0.703,0,0,0,0,0
4.288,1783028598.276,DISARMED,idle,-1.00,0.00,-1.00,0.000,0.000,0.000,0.000,,,,,-1.671,-0.774,-0.703,0,0,0,0,0
4.322,1783028598.310,DISARMED,idle,-1.00,0.00,-1.00,0.000,0.000,0.000,0.000,,,,,-1.671,-0.774,-0.703,0,0,0,0,0
4.356,1783028598.344,DISARMED,idle,-1.00,0.00,-1.00,0.000,0.000,0.000,0.000,,,,,-1.671,-0.774,-0.703,0,0,0,0,0
4.391,1783028598.379,DISARMED,idle,-1.00,0.00,-1.00,0.000,0.000,0.000,0.000,,,,,-1.681,-0.761,-0.706,0,0,0,0,0
4.424,1783028598.411,DISARMED,idle,-1.00,0.00,-1.00,0.000,0.000,0.000,0.000,,,,,-1.687,-0.766,-0.704,0,0,0,0,0
4.458,1783028598.446,DISARMED,idle,-1.00,0.00,-1.00,0.000,0.000,0.000,0.000,,,,,-1.687,-0.766,-0.704,0,0,0,0,0
4.492,1783028598.480,DISARMED,idle,-1.00,0.00,-1.00,0.000,0.000,0.000,0.000,,,,,-1.687,-0.766,-0.704,0,0,0,0,0
4.526,1783028598.514,DISARMED,idle,-1.00,0.00,-1.00,0.000,0.000,0.000,0.000,,,,,-1.687,-0.766,-0.704,0,0,0,0,0
4.559,1783028598.547,DISARMED,idle,-1.00,0.00,-1.00,0.000,0.000,0.000,0.000,,,,,-1.687,-0.766,-0.704,0,0,0,0,0
4.593,1783028598.581,DISARMED,idle,-1.00,0.00,-1.00,0.000,0.000,0.000,0.000,,,,,-1.697,-0.75,-0.705,0,0,0,0,0
4.626,1783028598.614,DISARMED,idle,-1.00,0.00,-1.00,0.000,0.000,0.000,0.000,,,,,-1.703,-0.746,-0.705,0,0,0,0,0
4.660,1783028598.648,DISARMED,idle,-1.00,0.00,-1.00,0.000,0.000,0.000,0.000,,,,,-1.703,-0.746,-0.705,0,0,0,0,0
4.695,1783028598.683,DISARMED,idle,-1.00,0.00,-1.00,0.000,0.000,0.000,0.000,,,,,-1.703,-0.746,-0.705,0,0,0,0,0
4.729,1783028598.717,DISARMED,idle,-1.00,0.00,-1.00,0.000,0.000,0.000,0.000,,,,,-1.71,-0.748,-0.704,0,0,0,0,0
4.763,1783028598.751,DISARMED,idle,-1.00,0.00,-1.00,0.000,0.000,0.000,0.000,,,,,-1.71,-0.742,-0.706,0,0,0,0,0
4.796,1783028598.784,DISARMED,idle,-1.00,0.00,-1.00,0.000,0.000,0.000,0.000,,,,,-1.71,-0.742,-0.706,0,0,0,0,0
4.831,1783028598.818,DISARMED,idle,-1.00,0.00,-1.00,0.000,0.000,0.000,0.000,,,,,-1.71,-0.742,-0.706,0,0,0,0,0
4.865,1783028598.852,DISARMED,idle,-1.00,0.00,-1.00,0.000,0.000,0.000,0.000,,,,,-1.71,-0.742,-0.706,0,0,0,0,0
4.899,1783028598.886,DISARMED,idle,-1.00,0.00,-1.00,0.000,0.000,0.000,0.000,,,,,-1.71,-0.742,-0.706,0,0,0,0,0
4.933,1783028598.920,DISARMED,idle,-1.00,0.00,-1.00,0.000,0.000,0.000,0.000,,,,,-1.71,-0.742,-0.706,0,0,0,0,0
4.967,1783028598.954,DISARMED,idle,-1.00,0.00,-1.00,0.000,0.000,0.000,0.000,,,,,-1.71,-0.742,-0.706,0,0,0,0,0
5.001,1783028598.988,DISARMED,idle,-1.00,0.00,-1.00,0.000,0.000,0.000,0.000,,,,,-1.71,-0.742,-0.706,0,0,0,0,0
5.035,1783028599.023,DISARMED,idle,-1.00,0.00,-1.00,0.000,0.000,0.000,0.000,,,,,-1.71,-0.742,-0.706,0,0,0,0,0
5.069,1783028599.056,DISARMED,idle,-1.00,0.00,-1.00,0.000,0.000,0.000,0.000,,,,,-1.71,-0.742,-0.706,0,0,0,0,0
5.103,1783028599.091,DISARMED,idle,-1.00,0.00,-1.00,0.000,0.000,0.000,0.000,,,,,-1.719,-0.729,-0.706,0,0,0,0,0
5.137,1783028599.125,DISARMED,idle,-1.00,0.00,-1.00,0.000,0.000,0.000,0.000,,,,,-1.719,-0.729,-0.706,0,0,0,0,0
5.170,1783028599.158,DISARMED,idle,-1.00,0.00,-1.00,0.000,0.000,0.000,0.000,,,,,-1.724,-0.725,-0.707,0,0,0,0,0
5.205,1783028599.192,DISARMED,idle,-1.00,0.00,-1.00,0.000,0.000,0.000,0.000,,,,,-1.724,-0.725,-0.707,0,0,0,0,0
5.238,1783028599.226,DISARMED,idle,-1.00,0.00,-1.00,0.000,0.000,0.000,0.000,,,,,-1.72,-0.722,-0.708,0,0,0,0,0
5.272,1783028599.259,DISARMED,idle,-1.00,0.00,-1.00,0.000,0.000,0.000,0.000,,,,,-1.729,-0.711,-0.707,0,0,0,0,0
5.306,1783028599.293,DISARMED,idle,-1.00,0.00,-1.00,0.000,0.000,0.000,0.000,,,,,-1.729,-0.711,-0.707,0,0,0,0,0
5.340,1783028599.327,DISARMED,idle,-1.00,0.00,-1.00,0.000,0.000,0.000,0.000,,,,,-1.729,-0.711,-0.707,0,0,0,0,0
5.373,1783028599.361,DISARMED,idle,-1.00,0.00,-1.00,0.000,0.000,0.000,0.000,,,,,-1.729,-0.711,-0.707,0,0,0,0,0
5.408,1783028599.395,DISARMED,idle,-1.00,0.00,-1.00,0.000,0.000,0.000,0.000,,,,,-1.741,-0.691,-0.711,0,0,0,0,0
5.441,1783028599.429,DISARMED,idle,-1.00,0.00,-1.00,0.000,0.000,0.000,0.000,,,,,-1.741,-0.691,-0.711,0,0,0,0,0
5.476,1783028599.463,DISARMED,idle,-1.00,0.00,-1.00,0.000,0.000,0.000,0.000,,,,,-1.741,-0.691,-0.711,0,0,0,0,0
5.509,1783028599.497,DISARMED,idle,-1.00,0.00,-1.00,0.000,0.000,0.000,0.000,,,,,-1.737,-0.687,-0.711,0,0,0,0,0
5.544,1783028599.532,DISARMED,idle,-1.00,0.00,-1.00,0.000,0.000,0.000,0.000,,,,,-1.742,-0.676,-0.711,0,0,0,0,0
5.578,1783028599.565,DISARMED,idle,-1.00,0.00,-1.00,0.000,0.000,0.000,0.000,,,,,-1.742,-0.676,-0.711,0,0,0,0,0
5.612,1783028599.599,DISARMED,idle,-1.00,0.00,-1.00,0.000,0.000,0.000,0.000,,,,,-1.737,-0.681,-0.711,0,0,0,0,0
5.646,1783028599.634,DISARMED,idle,-1.00,0.00,-1.00,0.000,0.000,0.000,0.000,,,,,-1.737,-0.681,-0.711,0,0,0,0,0
5.679,1783028599.667,DISARMED,idle,-1.00,0.00,-1.00,0.000,0.000,0.000,0.000,,,,,-1.731,-0.689,-0.711,0,0,0,0,0
5.714,1783028599.701,DISARMED,idle,-1.00,0.00,-1.00,0.000,0.000,0.000,0.000,,,,,-1.731,-0.689,-0.711,0,0,0,0,0
5.748,1783028599.736,DISARMED,idle,-1.00,0.00,-1.00,0.000,0.000,0.000,0.000,,,,,-1.732,-0.695,-0.709,0,0,0,0,0
5.781,1783028599.769,DISARMED,idle,-1.00,0.00,-1.00,0.000,0.000,0.000,0.000,,,,,-1.732,-0.695,-0.709,0,0,0,0,0
5.816,1783028599.803,DISARMED,idle,-1.00,0.00,-1.00,0.000,0.000,0.000,0.000,,,,,-1.735,-0.699,-0.711,0,0,0,0,0
5.850,1783028599.837,DISARMED,idle,-1.00,0.00,-1.00,0.000,0.000,0.000,0.000,,,,,-1.735,-0.699,-0.711,0,0,0,0,0
5.884,1783028599.872,DISARMED,idle,-1.00,0.00,-1.00,0.000,0.000,0.000,0.000,,,,,-1.735,-0.699,-0.711,0,0,0,0,0
5.918,1783028599.906,DISARMED,idle,-1.00,0.00,-1.00,0.000,0.000,0.000,0.000,,,,,-1.742,-0.685,-0.71,0,0,0,0,0
5.952,1783028599.939,DISARMED,idle,-1.00,0.00,-1.00,0.000,0.000,0.000,0.000,,,,,-1.742,-0.685,-0.71,0,0,0,0,0
5.986,1783028599.973,DISARMED,idle,-1.00,0.00,-1.00,0.000,0.000,0.000,0.000,,,,,-1.742,-0.685,-0.71,0,0,0,0,0
6.020,1783028600.008,DISARMED,idle,-1.00,0.00,-1.00,0.000,0.000,0.000,0.000,,,,,-1.738,-0.679,-0.709,0,0,0,0,0
6.053,1783028600.041,DISARMED,idle,-1.00,0.00,-1.00,0.000,0.000,0.000,0.000,,,,,-1.738,-0.675,-0.71,0,0,0,0,0
6.088,1783028600.076,DISARMED,idle,-1.00,0.00,-1.00,0.000,0.000,0.000,0.000,,,,,-1.738,-0.675,-0.71,0,0,0,0,0
6.122,1783028600.109,DISARMED,idle,-1.00,0.00,-1.00,0.000,0.000,0.000,0.000,,,,,-1.729,-0.684,-0.711,0,0,0,0,0
6.156,1783028600.143,DISARMED,idle,-1.00,0.00,-1.00,0.000,0.000,0.000,0.000,,,,,-1.729,-0.684,-0.711,0,0,0,0,0
6.188,1783028600.176,DISARMED,idle,-1.00,0.00,-1.00,0.000,0.000,0.000,0.000,,,,,-1.712,-0.694,-0.711,0,0,0,0,0
6.222,1783028600.210,DISARMED,idle,-1.00,0.00,-1.00,0.000,0.000,0.000,0.000,,,,,-1.712,-0.694,-0.711,0,0,0,0,0
6.256,1783028600.243,DISARMED,idle,-1.00,0.00,-1.00,0.000,0.000,0.000,0.000,,,,,-1.707,-0.7,-0.711,0,0,0,0,0
6.290,1783028600.278,DISARMED,idle,-1.00,0.00,-1.00,0.000,0.000,0.000,0.000,,,,,-1.707,-0.7,-0.711,0,0,0,0,0
6.324,1783028600.312,DISARMED,idle,-1.00,0.00,-1.00,0.000,0.000,0.000,0.000,,,,,-1.707,-0.7,-0.711,0,0,0,0,0
6.358,1783028600.345,DISARMED,idle,-1.00,0.00,-1.00,0.000,0.000,0.000,0.000,,,,,-1.707,-0.7,-0.711,0,0,0,0,0
6.392,1783028600.379,DISARMED,idle,-1.00,0.00,-1.00,0.000,0.000,0.000,0.000,,,,,-1.707,-0.7,-0.711,0,0,0,0,0
6.426,1783028600.414,DISARMED,idle,-1.00,0.00,-1.00,0.000,0.000,0.000,0.000,,,,,-1.707,-0.7,-0.711,0,0,0,0,0
6.460,1783028600.448,DISARMED,idle,-1.00,0.00,-1.00,0.000,0.000,0.000,0.000,,,,,-1.707,-0.7,-0.711,0,0,0,0,0
6.494,1783028600.481,DISARMED,idle,-1.00,0.00,-1.00,0.000,0.000,0.000,0.000,,,,,-1.707,-0.7,-0.711,0,0,0,0,0
6.528,1783028600.515,DISARMED,idle,-1.00,0.00,-1.00,0.000,0.000,0.000,0.000,,,,,-1.707,-0.7,-0.711,0,0,0,0,0
6.562,1783028600.549,DISARMED,idle,-1.00,0.00,-1.00,0.000,0.000,0.000,0.000,,,,,-1.707,-0.7,-0.711,0,0,0,0,0
6.596,1783028600.583,DISARMED,idle,-1.00,0.00,-1.00,0.000,0.000,0.000,0.000,,,,,-1.707,-0.7,-0.711,0,0,0,0,0
6.630,1783028600.618,DISARMED,idle,-1.00,0.00,-1.00,0.000,0.000,0.000,0.000,,,,,-1.691,-0.713,-0.714,0,0,0,0,0
6.664,1783028600.652,DISARMED,idle,-1.00,0.00,-1.00,0.000,0.000,0.000,0.000,,,,,-1.687,-0.696,-0.712,0,0,0,0,0
6.698,1783028600.686,DISARMED,idle,-1.00,0.00,-1.00,0.000,0.000,0.000,0.000,,,,,-1.687,-0.696,-0.712,0,0,0,0,0
6.732,1783028600.719,DISARMED,idle,-1.00,0.00,-1.00,0.000,0.000,0.000,0.000,,,,,-1.687,-0.696,-0.712,0,0,0,0,0
6.766,1783028600.753,DISARMED,idle,-1.00,0.00,-1.00,0.000,0.000,0.000,0.000,,,,,-1.686,-0.675,-0.713,0,0,0,0,0
6.800,1783028600.788,DISARMED,idle,-1.00,0.00,-1.00,0.000,0.000,0.000,0.000,,,,,-1.686,-0.675,-0.713,0,0,0,0,0
6.834,1783028600.822,DISARMED,idle,-1.00,0.00,-1.00,0.000,0.000,0.000,0.000,,,,,-1.686,-0.675,-0.713,0,0,0,0,0
6.868,1783028600.856,DISARMED,idle,-1.00,0.00,-1.00,0.000,0.000,0.000,0.000,,,,,-1.686,-0.675,-0.713,0,0,0,0,0
6.903,1783028600.890,DISARMED,idle,-1.00,0.00,-1.00,0.000,0.000,0.000,0.000,,,,,-1.686,-0.675,-0.713,0,0,0,0,0
6.937,1783028600.925,DISARMED,idle,-1.00,0.00,-1.00,0.000,0.000,0.000,0.000,,,,,-1.694,-0.653,-0.716,0,0,0,0,0
6.971,1783028600.958,DISARMED,idle,-1.00,0.00,-1.00,0.000,0.000,0.000,0.000,,,,,-1.696,-0.643,-0.717,0,0,0,0,0
7.004,1783028600.992,DISARMED,idle,-1.00,0.00,-1.00,0.000,0.000,0.000,0.000,,,,,-1.696,-0.643,-0.717,0,0,0,0,0
7.039,1783028601.027,DISARMED,idle,-1.00,0.00,-1.00,0.000,0.000,0.000,0.000,,,,,-1.691,-0.633,-0.718,0,0,0,0,0
7.073,1783028601.060,DISARMED,idle,-1.00,0.00,-1.00,0.000,0.000,0.000,0.000,,,,,-1.691,-0.633,-0.718,0,0,0,0,0
7.106,1783028601.094,DISARMED,idle,-1.00,0.00,-1.00,0.000,0.000,0.000,0.000,,,,,-1.691,-0.633,-0.718,0,0,0,0,0
7.140,1783028601.128,DISARMED,idle,-1.00,0.00,-1.00,0.000,0.000,0.000,0.000,,,,,-1.691,-0.633,-0.718,0,0,0,0,0
7.174,1783028601.162,DISARMED,idle,-1.00,0.00,-1.00,0.000,0.000,0.000,0.000,,,,,-1.685,-0.618,-0.718,0,0,0,0,0
7.208,1783028601.196,DISARMED,idle,-1.00,0.00,-1.00,0.000,0.000,0.000,0.000,,,,,-1.685,-0.618,-0.718,0,0,0,0,0
7.243,1783028601.230,DISARMED,idle,-1.00,0.00,-1.00,0.000,0.000,0.000,0.000,,,,,-1.685,-0.618,-0.718,0,0,0,0,0
7.277,1783028601.264,DISARMED,idle,-1.00,0.00,-1.00,0.000,0.000,0.000,0.000,,,,,-1.681,-0.609,-0.719,0,0,0,0,0
7.311,1783028601.299,DISARMED,idle,-1.00,0.00,-1.00,0.000,0.000,0.000,0.000,,,,,-1.679,-0.607,-0.719,0,0,0,0,0
7.344,1783028601.332,DISARMED,idle,-1.00,0.00,-1.00,0.000,0.000,0.000,0.000,,,,,-1.679,-0.607,-0.719,0,0,0,0,0
7.379,1783028601.366,DISARMED,idle,-1.00,0.00,-1.00,0.000,0.000,0.000,0.000,,,,,-1.679,-0.607,-0.719,0,0,0,0,0
7.413,1783028601.401,DISARMED,idle,-1.00,0.00,-1.00,0.000,0.000,0.000,0.000,,,,,-1.679,-0.607,-0.719,0,0,0,0,0
7.447,1783028601.435,DISARMED,idle,-1.00,0.00,-1.00,0.000,0.000,0.000,0.000,,,,,-1.679,-0.607,-0.719,0,0,0,0,0
7.482,1783028601.469,DISARMED,idle,-1.00,0.00,-1.00,0.000,0.000,0.000,0.000,,,,,-1.679,-0.607,-0.719,0,0,0,0,0
7.516,1783028601.503,DISARMED,idle,-1.00,0.00,-1.00,0.000,0.000,0.000,0.000,,,,,-1.679,-0.607,-0.719,0,0,0,0,0
7.550,1783028601.537,DISARMED,idle,-1.00,0.00,-1.00,0.000,0.000,0.000,0.000,,,,,-1.679,-0.607,-0.719,0,0,0,0,0
7.584,1783028601.572,DISARMED,idle,-1.00,0.00,-1.00,0.000,0.000,0.000,0.000,,,,,-1.679,-0.607,-0.719,0,0,0,0,0
7.618,1783028601.605,DISARMED,idle,-1.00,0.00,-1.00,0.000,0.000,0.000,0.000,,,,,-1.679,-0.607,-0.719,0,0,0,0,0
7.652,1783028601.640,DISARMED,idle,-1.00,0.00,-1.00,0.000,0.000,0.000,0.000,,,,,-1.695,-0.607,-0.721,0,0,0,0,0
7.686,1783028601.673,DISARMED,idle,-1.00,0.00,-1.00,0.000,0.000,0.000,0.000,,,,,-1.701,-0.624,-0.722,0,0,0,0,0
7.720,1783028601.708,DISARMED,idle,-1.00,0.00,-1.00,0.000,0.000,0.000,0.000,,,,,-1.701,-0.624,-0.722,0,0,0,0,0
7.754,1783028601.742,DISARMED,idle,-1.00,0.00,-1.00,0.000,0.000,0.000,0.000,,,,,-1.701,-0.624,-0.722,0,0,0,0,0
7.788,1783028601.775,DISARMED,idle,-1.00,0.00,-1.00,0.000,0.000,0.000,0.000,,,,,-1.697,-0.618,-0.722,0,0,0,0,0
7.822,1783028601.809,DISARMED,idle,-1.00,0.00,-1.00,0.000,0.000,0.000,0.000,,,,,-1.68,-0.632,-0.724,0,0,0,0,0
7.856,1783028601.843,DISARMED,idle,-1.00,0.00,-1.00,0.000,0.000,0.000,0.000,,,,,-1.68,-0.632,-0.724,0,0,0,0,0
7.890,1783028601.877,DISARMED,idle,-1.00,0.00,-1.00,0.000,0.000,0.000,0.000,,,,,-1.68,-0.632,-0.724,0,0,0,0,0
7.924,1783028601.911,DISARMED,idle,-1.00,0.00,-1.00,0.000,0.000,0.000,0.000,,,,,-1.68,-0.632,-0.724,0,0,0,0,0
7.957,1783028601.945,DISARMED,idle,-1.00,0.00,-1.00,0.000,0.000,0.000,0.000,,,,,-1.68,-0.632,-0.724,0,0,0,0,0
7.991,1783028601.979,DISARMED,idle,-1.00,0.00,-1.00,0.000,0.000,0.000,0.000,,,,,-1.68,-0.632,-0.724,0,0,0,0,0
8.025,1783028602.013,DISARMED,idle,-1.00,0.00,-1.00,0.000,0.000,0.000,0.000,,,,,-1.667,-0.626,-0.717,0,0,0,0,0
8.060,1783028602.047,DISARMED,idle,-1.00,0.00,-1.00,0.000,0.000,0.000,0.000,,,,,-1.667,-0.626,-0.717,0,0,0,0,0
8.093,1783028602.081,DISARMED,idle,-1.00,0.00,-1.00,0.000,0.000,0.000,0.000,,,,,-1.647,-0.642,-0.717,0,0,0,0,0
8.127,1783028602.115,DISARMED,idle,-1.00,0.00,-1.00,0.000,0.000,0.000,0.000,,,,,-1.647,-0.642,-0.717,0,0,0,0,0
8.162,1783028602.150,DISARMED,idle,-1.00,0.00,-1.00,0.000,0.000,0.000,0.000,,,,,-1.652,-0.651,-0.712,0,0,0,0,0
8.196,1783028602.183,DISARMED,idle,-1.00,0.00,-1.00,0.000,0.000,0.000,0.000,,,,,-1.652,-0.651,-0.712,0,0,0,0,0
8.229,1783028602.217,DISARMED,idle,-1.00,0.00,-1.00,0.000,0.000,0.000,0.000,,,,,-1.652,-0.651,-0.712,0,0,0,0,0
8.264,1783028602.252,DISARMED,idle,-1.00,0.00,-1.00,0.000,0.000,0.000,0.000,,,,,-1.65,-0.666,-0.712,0,0,0,0,0
8.297,1783028602.285,DISARMED,idle,-1.00,0.00,-1.00,0.000,0.000,0.000,0.000,,,,,-1.65,-0.666,-0.712,0,0,0,0,0
8.332,1783028602.320,DISARMED,idle,-1.00,0.00,-1.00,0.000,0.000,0.000,0.000,,,,,-1.653,-0.678,-0.711,0,0,0,0,0
8.365,1783028602.353,DISARMED,idle,-1.00,0.00,-1.00,0.000,0.000,0.000,0.000,,,,,-1.653,-0.678,-0.711,0,0,0,0,0
8.400,1783028602.387,DISARMED,idle,-1.00,0.00,-1.00,0.000,0.000,0.000,0.000,,,,,-1.653,-0.678,-0.711,0,0,0,0,0
8.433,1783028602.421,DISARMED,idle,-1.00,0.00,-1.00,0.000,0.000,0.000,0.000,,,,,-1.653,-0.678,-0.711,0,0,0,0,0
8.467,1783028602.455,DISARMED,idle,-1.00,0.00,-1.00,0.000,0.000,0.000,0.000,,,,,-1.653,-0.678,-0.711,0,0,0,0,0
8.501,1783028602.489,DISARMED,idle,-1.00,0.00,-1.00,0.000,0.000,0.000,0.000,,,,,-1.653,-0.678,-0.711,0,0,0,0,0
8.536,1783028602.523,DISARMED,idle,-1.00,0.00,-1.00,0.000,0.000,0.000,0.000,,,,,-1.653,-0.678,-0.711,0,0,0,0,0
8.570,1783028602.558,DISARMED,idle,-1.00,0.00,-1.00,0.000,0.000,0.000,0.000,,,,,-1.647,-0.708,-0.714,0,0,0,0,0
8.604,1783028602.591,DISARMED,idle,-1.00,0.00,-1.00,0.000,0.000,0.000,0.000,,,,,-1.644,-0.712,-0.718,0,0,0,0,0
8.638,1783028602.625,DISARMED,idle,-1.00,0.00,-1.00,0.000,0.000,0.000,0.000,,,,,-1.644,-0.712,-0.718,0,0,0,0,0
8.672,1783028602.659,DISARMED,idle,-1.00,0.00,-1.00,0.000,0.000,0.000,0.000,,,,,-1.644,-0.712,-0.718,0,0,0,0,0
8.705,1783028602.693,DISARMED,idle,-1.00,0.00,-1.00,0.000,0.000,0.000,0.000,,,,,-1.644,-0.712,-0.718,0,0,0,0,0
8.740,1783028602.728,DISARMED,idle,-1.00,0.00,-1.00,0.000,0.000,0.000,0.000,,,,,-1.644,-0.712,-0.718,0,0,0,0,0
8.774,1783028602.761,DISARMED,idle,-1.00,0.00,-1.00,0.000,0.000,0.000,0.000,,,,,-1.654,-0.719,-0.715,0,0,0,0,0
8.808,1783028602.796,DISARMED,idle,-1.00,0.00,-1.00,0.000,0.000,0.000,0.000,,,,,-1.649,-0.725,-0.716,0,0,0,0,0
8.843,1783028602.831,DISARMED,idle,-1.00,0.00,-1.00,0.000,0.000,0.000,0.000,,,,,-1.649,-0.725,-0.716,0,0,0,0,0
8.877,1783028602.865,DISARMED,idle,-1.00,0.00,-1.00,0.000,0.000,0.000,0.000,,,,,-1.647,-0.734,-0.717,0,0,0,0,0
8.911,1783028602.898,DISARMED,idle,-1.00,0.00,-1.00,0.000,0.000,0.000,0.000,,,,,-1.647,-0.734,-0.717,0,0,0,0,0
8.945,1783028602.932,DISARMED,idle,-1.00,0.00,-1.00,0.000,0.000,0.000,0.000,,,,,-1.642,-0.738,-0.718,0,0,0,0,0
8.979,1783028602.966,DISARMED,idle,-1.00,0.00,-1.00,0.000,0.000,0.000,0.000,,,,,-1.642,-0.738,-0.718,0,0,0,0,0
9.013,1783028603.000,DISARMED,idle,-1.00,0.00,-1.00,0.000,0.000,0.000,0.000,,,,,-1.642,-0.738,-0.718,0,0,0,0,0
9.047,1783028603.035,DISARMED,idle,-1.00,0.00,-1.00,0.000,0.000,0.000,0.000,,,,,-1.642,-0.738,-0.718,0,0,0,0,0
9.080,1783028603.068,DISARMED,idle,-1.00,0.00,-1.00,0.000,0.000,0.000,0.000,,,,,-1.638,-0.738,-0.719,0,0,0,0,0
9.115,1783028603.102,DISARMED,idle,-1.00,0.00,-1.00,0.000,0.000,0.000,0.000,,,,,-1.651,-0.742,-0.719,0,0,0,0,0
9.149,1783028603.136,DISARMED,idle,-1.00,0.00,-1.00,0.000,0.000,0.000,0.000,,,,,-1.651,-0.742,-0.719,0,0,0,0,0
9.183,1783028603.171,DISARMED,idle,-1.00,0.00,-1.00,0.000,0.000,0.000,0.000,,,,,-1.651,-0.742,-0.719,0,0,0,0,0
9.217,1783028603.204,DISARMED,idle,-1.00,0.00,-1.00,0.000,0.000,0.000,0.000,,,,,-1.651,-0.742,-0.719,0,0,0,0,0
9.251,1783028603.239,DISARMED,idle,-1.00,0.00,-1.00,0.000,0.000,0.000,0.000,,,,,-1.651,-0.742,-0.719,0,0,0,0,0
9.286,1783028603.273,DISARMED,idle,-1.00,0.00,-1.00,0.000,0.000,0.000,0.000,,,,,-1.654,-0.75,-0.719,0,0,0,0,0
9.319,1783028603.306,DISARMED,idle,-1.00,0.00,-1.00,0.000,0.000,0.000,0.000,,,,,-1.659,-0.753,-0.72,0,0,0,0,0
9.353,1783028603.340,DISARMED,idle,-1.00,0.00,-1.00,0.000,0.000,0.000,0.000,,,,,-1.659,-0.753,-0.72,0,0,0,0,0
9.387,1783028603.374,DISARMED,idle,-1.00,0.00,-1.00,0.000,0.000,0.000,0.000,,,,,-1.659,-0.754,-0.723,0,0,0,0,0
9.421,1783028603.408,DISARMED,idle,-1.00,0.00,-1.00,0.000,0.000,0.000,0.000,,,,,-1.659,-0.754,-0.723,0,0,0,0,0
9.455,1783028603.443,DISARMED,idle,-1.00,0.00,-1.00,0.000,0.000,0.000,0.000,,,,,-1.656,-0.752,-0.724,0,0,0,0,0
9.489,1783028603.477,DISARMED,idle,-1.00,0.00,-1.00,0.000,0.000,0.000,0.000,,,,,-1.656,-0.752,-0.724,0,0,0,0,0
9.523,1783028603.511,DISARMED,idle,-1.00,0.00,-1.00,0.000,0.000,0.000,0.000,,,,,-1.656,-0.752,-0.724,0,0,0,0,0
9.557,1783028603.545,DISARMED,idle,-1.00,0.00,-1.00,0.000,0.000,0.000,0.000,,,,,-1.656,-0.752,-0.724,0,0,0,0,0
9.591,1783028603.579,DISARMED,idle,-1.00,0.00,-1.00,0.000,0.000,0.000,0.000,,,,,-1.655,-0.76,-0.724,0,0,0,0,0
9.625,1783028603.613,DISARMED,idle,-1.00,0.00,-1.00,0.000,0.000,0.000,0.000,,,,,-1.655,-0.76,-0.724,0,0,0,0,0
9.659,1783028603.646,DISARMED,idle,-1.00,0.00,-1.00,0.000,0.000,0.000,0.000,,,,,-1.65,-0.755,-0.724,0,0,0,0,0
9.693,1783028603.680,DISARMED,idle,-1.00,0.00,-1.00,0.000,0.000,0.000,0.000,,,,,-1.65,-0.755,-0.724,0,0,0,0,0
9.726,1783028603.714,DISARMED,idle,-1.00,0.00,-1.00,0.000,0.000,0.000,0.000,,,,,-1.65,-0.755,-0.724,0,0,0,0,0
9.760,1783028603.748,DISARMED,idle,-1.00,0.00,-1.00,0.000,0.000,0.000,0.000,,,,,-1.65,-0.755,-0.724,0,0,0,0,0
9.795,1783028603.782,DISARMED,idle,-1.00,0.00,-1.00,0.000,0.000,0.000,0.000,,,,,-1.65,-0.755,-0.724,0,0,0,0,0
9.829,1783028603.817,DISARMED,idle,-1.00,0.00,-1.00,0.000,0.000,0.000,0.000,,,,,-1.65,-0.755,-0.724,0,0,0,0,0
9.863,1783028603.851,DISARMED,idle,-1.00,0.00,-1.00,0.000,0.000,0.000,0.000,,,,,-1.65,-0.755,-0.724,0,0,0,0,0
9.896,1783028603.884,DISARMED,idle,-1.00,0.00,-1.00,0.000,0.000,0.000,0.000,,,,,-1.65,-0.77,-0.727,0,0,0,0,0
9.929,1783028603.917,DISARMED,idle,-1.00,0.00,-1.00,0.000,0.000,0.000,0.000,,,,,-1.65,-0.77,-0.727,0,0,0,0,0
9.963,1783028603.951,DISARMED,idle,-1.00,0.00,-1.00,0.000,0.000,0.000,0.000,,,,,-1.65,-0.77,-0.727,0,0,0,0,0
9.998,1783028603.985,DISARMED,idle,-1.00,0.00,-1.00,0.000,0.000,0.000,0.000,,,,,-1.65,-0.77,-0.727,0,0,0,0,0
10.031,1783028604.019,DISARMED,idle,-1.00,0.00,-1.00,0.000,0.000,0.000,0.000,,,,,-1.65,-0.77,-0.727,0,0,0,0,0
10.066,1783028604.053,DISARMED,idle,-1.00,0.00,-1.00,0.000,0.000,0.000,0.000,,,,,-1.65,-0.77,-0.727,0,0,0,0,0
10.099,1783028604.087,DISARMED,idle,-1.00,0.00,-1.00,0.000,0.000,0.000,0.000,,,,,-1.661,-0.766,-0.728,0,0,0,0,0
10.134,1783028604.122,DISARMED,idle,-1.00,0.00,-1.00,0.000,0.000,0.000,0.000,,,,,-1.661,-0.766,-0.728,0,0,0,0,0
10.168,1783028604.156,DISARMED,idle,-1.00,0.00,-1.00,0.000,0.000,0.000,0.000,,,,,-1.659,-0.772,-0.729,0,0,0,0,0
10.201,1783028604.189,DISARMED,idle,-1.00,0.00,-1.00,0.000,0.000,0.000,0.000,,,,,-1.659,-0.772,-0.729,0,0,0,0,0
10.234,1783028604.222,DISARMED,idle,-1.00,0.00,-1.00,0.000,0.000,0.000,0.000,,,,,-1.659,-0.772,-0.729,0,0,0,0,0
10.267,1783028604.255,DISARMED,idle,-1.00,0.00,-1.00,0.000,0.000,0.000,0.000,,,,,-1.659,-0.772,-0.729,0,0,0,0,0
10.302,1783028604.289,DISARMED,idle,-1.00,0.00,-1.00,0.000,0.000,0.000,0.000,,,,,-1.656,-0.782,-0.732,0,0,0,0,0
10.335,1783028604.323,DISARMED,idle,-1.00,0.00,-1.00,0.000,0.000,0.000,0.000,,,,,-1.656,-0.782,-0.732,0,0,0,0,0
10.370,1783028604.357,DISARMED,idle,-1.00,0.00,-1.00,0.000,0.000,0.000,0.000,,,,,-1.654,-0.788,-0.732,0,0,0,0,0
10.403,1783028604.391,DISARMED,idle,-1.00,0.00,-1.00,0.000,0.000,0.000,0.000,,,,,-1.654,-0.788,-0.732,0,0,0,0,0
10.437,1783028604.425,DISARMED,idle,-1.00,0.00,-1.00,0.000,0.000,0.000,0.000,,,,,-1.654,-0.791,-0.732,0,0,0,0,0
10.472,1783028604.459,DISARMED,idle,-1.00,0.00,-1.00,0.000,0.000,0.000,0.000,,,,,-1.654,-0.791,-0.732,0,0,0,0,0
10.506,1783028604.493,DISARMED,idle,-1.00,0.00,-1.00,0.000,0.000,0.000,0.000,,,,,-1.652,-0.795,-0.732,0,0,0,0,0
10.539,1783028604.527,DISARMED,idle,-1.00,0.00,-1.00,0.000,0.000,0.000,0.000,,,,,-1.648,-0.798,-0.731,0,0,0,0,0
10.574,1783028604.561,DISARMED,idle,-1.00,0.00,-1.00,0.000,0.000,0.000,0.000,,,,,-1.648,-0.798,-0.731,0,0,0,0,0
10.607,1783028604.595,DISARMED,idle,-1.00,0.00,-1.00,0.000,0.000,0.000,0.000,,,,,-1.648,-0.798,-0.731,0,0,0,0,0
10.642,1783028604.630,DISARMED,idle,-1.00,0.00,-1.00,0.000,0.000,0.000,0.000,,,,,-1.648,-0.798,-0.731,0,0,0,0,0
10.676,1783028604.663,DISARMED,idle,-1.00,0.00,-1.00,0.000,0.000,0.000,0.000,,,,,-1.648,-0.798,-0.731,0,0,0,0,0
10.709,1783028604.697,DISARMED,idle,-1.00,0.00,-1.00,0.000,0.000,0.000,0.000,,,,,-1.648,-0.798,-0.731,0,0,0,0,0
10.744,1783028604.731,DISARMED,idle,-1.00,0.00,-1.00,0.000,0.000,0.000,0.000,,,,,-1.64,-0.785,-0.735,0,0,0,0,0
10.778,1783028604.766,DISARMED,idle,-1.00,0.00,-1.00,0.000,0.000,0.000,0.000,,,,,-1.64,-0.785,-0.735,0,0,0,0,0
10.812,1783028604.800,DISARMED,idle,-1.00,0.00,-1.00,0.000,0.000,0.000,0.000,,,,,-1.64,-0.785,-0.735,0,0,0,0,0
10.846,1783028604.834,DISARMED,idle,-1.00,0.00,-1.00,0.000,0.000,0.000,0.000,,,,,-1.64,-0.785,-0.735,0,0,0,0,0
10.881,1783028604.868,DISARMED,idle,-1.00,0.00,-1.00,0.000,0.000,0.000,0.000,,,,,-1.641,-0.758,-0.737,0,0,0,0,0
10.915,1783028604.903,DISARMED,idle,-1.00,0.00,-1.00,0.000,0.000,0.000,0.000,,,,,-1.641,-0.758,-0.737,0,0,0,0,0
10.949,1783028604.937,DISARMED,idle,-1.00,0.00,-1.00,0.000,0.000,0.000,0.000,,,,,-1.641,-0.758,-0.737,0,0,0,0,0
10.982,1783028604.970,DISARMED,idle,-1.00,0.00,-1.00,0.000,0.000,0.000,0.000,,,,,-1.641,-0.758,-0.737,0,0,0,0,0
11.017,1783028605.004,DISARMED,idle,-1.00,0.00,-1.00,0.000,0.000,0.000,0.000,,,,,-1.641,-0.758,-0.737,0,0,0,0,0
11.051,1783028605.039,DISARMED,idle,-1.00,0.00,-1.00,0.000,0.000,0.000,0.000,,,,,-1.656,-0.749,-0.739,0,0,0,0,0
11.085,1783028605.072,DISARMED,idle,-1.00,0.00,-1.00,0.000,0.000,0.000,0.000,,,,,-1.652,-0.741,-0.739,0,0,0,0,0
11.119,1783028605.106,DISARMED,idle,-1.00,0.00,-1.00,0.000,0.000,0.000,0.000,,,,,-1.652,-0.741,-0.739,0,0,0,0,0
11.153,1783028605.141,DISARMED,idle,-1.00,0.00,-1.00,0.000,0.000,0.000,0.000,,,,,-1.652,-0.744,-0.741,0,0,0,0,0
11.187,1783028605.175,DISARMED,idle,-1.00,0.00,-1.00,0.000,0.000,0.000,0.000,,,,,-1.652,-0.744,-0.741,0,0,0,0,0
11.222,1783028605.209,DISARMED,idle,-1.00,0.00,-1.00,0.000,0.000,0.000,0.000,,,,,-1.652,-0.744,-0.741,0,0,0,0,0
11.256,1783028605.244,DISARMED,idle,-1.00,0.00,-1.00,0.000,0.000,0.000,0.000,,,,,-1.662,-0.736,-0.743,0,0,0,0,0
11.290,1783028605.278,DISARMED,idle,-1.00,0.00,-1.00,0.000,0.000,0.000,0.000,,,,,-1.662,-0.736,-0.743,0,0,0,0,0
11.325,1783028605.312,DISARMED,idle,-1.00,0.00,-1.00,0.000,0.000,0.000,0.000,,,,,-1.662,-0.736,-0.743,0,0,0,0,0
11.358,1783028605.345,DISARMED,idle,-1.00,0.00,-1.00,0.000,0.000,0.000,0.000,,,,,-1.663,-0.736,-0.743,0,0,0,0,0
11.392,1783028605.379,DISARMED,idle,-1.00,0.00,-1.00,0.000,0.000,0.000,0.000,,,,,-1.671,-0.732,-0.743,0,0,0,0,0
11.426,1783028605.413,DISARMED,idle,-1.00,0.00,-1.00,0.000,0.000,0.000,0.000,,,,,-1.671,-0.732,-0.743,0,0,0,0,0
11.460,1783028605.448,DISARMED,idle,-1.00,0.00,-1.00,0.000,0.000,0.000,0.000,,,,,-1.671,-0.732,-0.743,0,0,0,0,0
11.493,1783028605.481,DISARMED,idle,-1.00,0.00,-1.00,0.000,0.000,0.000,0.000,,,,,-1.671,-0.732,-0.743,0,0,0,0,0
11.528,1783028605.515,DISARMED,idle,-1.00,0.00,-1.00,0.000,0.000,0.000,0.000,,,,,-1.671,-0.732,-0.743,0,0,0,0,0
11.562,1783028605.549,DISARMED,idle,-1.00,0.00,-1.00,0.000,0.000,0.000,0.000,,,,,-1.686,-0.715,-0.744,0,0,0,0,0
11.596,1783028605.584,DISARMED,idle,-1.00,0.00,-1.00,0.000,0.000,0.000,0.000,,,,,-1.684,-0.711,-0.744,0,0,0,0,0
11.629,1783028605.617,DISARMED,idle,-1.00,0.00,-1.00,0.000,0.000,0.000,0.000,,,,,-1.684,-0.711,-0.744,0,0,0,0,0
11.663,1783028605.650,DISARMED,idle,-1.00,0.00,-1.00,0.000,0.000,0.000,0.000,,,,,-1.684,-0.711,-0.744,0,0,0,0,0
11.697,1783028605.685,DISARMED,idle,-1.00,0.00,-1.00,0.000,0.000,0.000,0.000,,,,,-1.684,-0.711,-0.744,0,0,0,0,0
11.731,1783028605.718,DISARMED,idle,-1.00,0.00,-1.00,0.000,0.000,0.000,0.000,,,,,-1.684,-0.711,-0.744,0,0,0,0,0
11.765,1783028605.752,DISARMED,idle,-1.00,0.00,-1.00,0.000,0.000,0.000,0.000,,,,,-1.679,-0.704,-0.745,0,0,0,0,0
11.799,1783028605.786,DISARMED,idle,-1.00,0.00,-1.00,0.000,0.000,0.000,0.000,,,,,-1.675,-0.711,-0.746,0,0,0,0,0
11.834,1783028605.821,DISARMED,idle,-1.00,0.00,-1.00,0.000,0.000,0.000,0.000,,,,,-1.675,-0.711,-0.746,0,0,0,0,0
11.867,1783028605.854,DISARMED,idle,-1.00,0.00,-1.00,0.000,0.000,0.000,0.000,,,,,-1.672,-0.715,-0.747,0,0,0,0,0
11.901,1783028605.889,DISARMED,idle,-1.00,0.00,-1.00,0.000,0.000,0.000,0.000,,,,,-1.672,-0.715,-0.747,0,0,0,0,0
11.934,1783028605.922,DISARMED,idle,-1.00,0.00,-1.00,0.000,0.000,0.000,0.000,,,,,-1.672,-0.715,-0.747,0,0,0,0,0
11.969,1783028605.956,DISARMED,idle,-1.00,0.00,-1.00,0.000,0.000,0.000,0.000,,,,,-1.672,-0.715,-0.747,0,0,0,0,0
12.002,1783028605.990,DISARMED,idle,-1.00,0.00,-1.00,0.000,0.000,0.000,0.000,,,,,-1.672,-0.715,-0.747,0,0,0,0,0
12.036,1783028606.024,DISARMED,idle,-1.00,0.00,-1.00,0.000,0.000,0.000,0.000,,,,,-1.672,-0.715,-0.747,0,0,0,0,0
12.071,1783028606.059,DISARMED,idle,-1.00,0.00,-1.00,0.000,0.000,0.000,0.000,,,,,-1.673,-0.722,-0.749,0,0,0,0,0
12.105,1783028606.092,DISARMED,idle,-1.00,0.00,-1.00,0.000,0.000,0.000,0.000,,,,,-1.673,-0.709,-0.75,0,0,0,0,0
12.138,1783028606.126,DISARMED,idle,-1.00,0.00,-1.00,0.000,0.000,0.000,0.000,,,,,-1.673,-0.709,-0.75,0,0,0,0,0
12.173,1783028606.160,DISARMED,idle,-1.00,0.00,-1.00,0.000,0.000,0.000,0.000,,,,,-1.67,-0.71,-0.748,0,0,0,0,0
12.206,1783028606.194,DISARMED,idle,-1.00,0.00,-1.00,0.000,0.000,0.000,0.000,,,,,-1.67,-0.71,-0.748,0,0,0,0,0
12.241,1783028606.228,DISARMED,idle,-1.00,0.00,-1.00,0.000,0.000,0.000,0.000,,,,,-1.67,-0.71,-0.748,0,0,0,0,0
12.275,1783028606.263,DISARMED,idle,-1.00,0.00,-1.00,0.000,0.000,0.000,0.000,,,,,-1.667,-0.714,-0.748,0,0,0,0,0
12.309,1783028606.297,DISARMED,idle,-1.00,0.00,-1.00,0.000,0.000,0.000,0.000,,,,,-1.664,-0.713,-0.749,0,0,0,0,0
12.344,1783028606.331,DISARMED,idle,-1.00,0.00,-1.00,0.000,0.000,0.000,0.000,,,,,-1.664,-0.713,-0.749,0,0,0,0,0
12.378,1783028606.365,DISARMED,idle,-1.00,0.00,-1.00,0.000,0.000,0.000,0.000,,,,,-1.661,-0.701,-0.751,0,0,0,0,0
12.412,1783028606.400,DISARMED,idle,-1.00,0.00,-1.00,0.000,0.000,0.000,0.000,,,,,-1.661,-0.701,-0.751,0,0,0,0,0
12.446,1783028606.434,DISARMED,idle,-1.00,0.00,-1.00,0.000,0.000,0.000,0.000,,,,,-1.661,-0.701,-0.751,0,0,0,0,0
12.480,1783028606.468,DISARMED,idle,-1.00,0.00,-1.00,0.000,0.000,0.000,0.000,,,,,-1.657,-0.701,-0.751,0,0,0,0,0
12.513,1783028606.500,DISARMED,idle,-1.00,0.00,-1.00,0.000,0.000,0.000,0.000,,,,,-1.666,-0.692,-0.75,0,0,0,0,0
12.547,1783028606.534,DISARMED,idle,-1.00,0.00,-1.00,0.000,0.000,0.000,0.000,,,,,-1.666,-0.692,-0.75,0,0,0,0,0
12.581,1783028606.569,DISARMED,idle,-1.00,0.00,-1.00,0.000,0.000,0.000,0.000,,,,,-1.661,-0.694,-0.752,0,0,0,0,0
12.614,1783028606.602,DISARMED,idle,-1.00,0.00,-1.00,0.000,0.000,0.000,0.000,,,,,-1.661,-0.694,-0.752,0,0,0,0,0
12.648,1783028606.636,DISARMED,idle,-1.00,0.00,-1.00,0.000,0.000,0.000,0.000,,,,,-1.661,-0.694,-0.752,0,0,0,0,0
12.683,1783028606.670,DISARMED,idle,-1.00,0.00,-1.00,0.000,0.000,0.000,0.000,,,,,-1.666,-0.7,-0.751,0,0,0,0,0
12.717,1783028606.704,DISARMED,idle,-1.00,0.00,-1.00,0.000,0.000,0.000,0.000,,,,,-1.661,-0.705,-0.75,0,0,0,0,0
12.751,1783028606.739,DISARMED,idle,-1.00,0.00,-1.00,0.000,0.000,0.000,0.000,,,,,-1.661,-0.705,-0.75,0,0,0,0,0
12.784,1783028606.772,DISARMED,idle,-1.00,0.00,-1.00,0.000,0.000,0.000,0.000,,,,,-1.661,-0.705,-0.75,0,0,0,0,0
12.819,1783028606.806,DISARMED,idle,-1.00,0.00,-1.00,0.000,0.000,0.000,0.000,,,,,-1.661,-0.705,-0.75,0,0,0,0,0
12.852,1783028606.840,DISARMED,idle,-1.00,0.00,-1.00,0.000,0.000,0.000,0.000,,,,,-1.661,-0.705,-0.75,0,0,0,0,0
12.886,1783028606.873,DISARMED,idle,-1.00,0.00,-1.00,0.000,0.000,0.000,0.000,,,,,-1.661,-0.712,-0.752,0,0,0,0,0
12.920,1783028606.907,DISARMED,idle,-1.00,0.00,-1.00,0.000,0.000,0.000,0.000,,,,,-1.661,-0.712,-0.752,0,0,0,0,0
12.954,1783028606.941,DISARMED,idle,-1.00,0.00,-1.00,0.000,0.000,0.000,0.000,,,,,-1.661,-0.712,-0.752,0,0,0,0,0
12.988,1783028606.975,DISARMED,idle,-1.00,0.00,-1.00,0.000,0.000,0.000,0.000,,,,,-1.665,-0.717,-0.752,0,0,0,0,0
13.022,1783028607.009,DISARMED,idle,-1.00,0.00,-1.00,0.000,0.000,0.000,0.000,,,,,-1.666,-0.716,-0.753,0,0,0,0,0
13.056,1783028607.044,DISARMED,idle,-1.00,0.00,-1.00,0.000,0.000,0.000,0.000,,,,,-1.666,-0.716,-0.753,0,0,0,0,0
13.090,1783028607.077,DISARMED,idle,-1.00,0.00,-1.00,0.000,0.000,0.000,0.000,,,,,-1.666,-0.716,-0.753,0,0,0,0,0
13.124,1783028607.112,DISARMED,idle,-1.00,0.00,-1.00,0.000,0.000,0.000,0.000,,,,,-1.666,-0.716,-0.753,0,0,0,0,0
13.157,1783028607.145,DISARMED,idle,-1.00,0.00,-1.00,0.000,0.000,0.000,0.000,,,,,-1.666,-0.716,-0.753,0,0,0,0,0
13.192,1783028607.179,DISARMED,idle,-1.00,0.00,-1.00,0.000,0.000,0.000,0.000,,,,,-1.666,-0.716,-0.753,0,0,0,0,0
13.226,1783028607.214,DISARMED,idle,-1.00,0.00,-1.00,0.000,0.000,0.000,0.000,,,,,-1.666,-0.716,-0.753,0,0,0,0,0
13.260,1783028607.248,DISARMED,idle,-1.00,0.00,-1.00,0.000,0.000,0.000,0.000,,,,,-1.666,-0.716,-0.753,0,0,0,0,0
13.294,1783028607.282,DISARMED,idle,-1.00,0.00,-1.00,0.000,0.000,0.000,0.000,,,,,-1.666,-0.716,-0.753,0,0,0,0,0
13.327,1783028607.315,DISARMED,idle,-1.00,0.00,-1.00,0.000,0.000,0.000,0.000,,,,,-1.666,-0.716,-0.753,0,0,0,0,0
13.362,1783028607.349,DISARMED,idle,-1.00,0.00,-1.00,0.000,0.000,0.000,0.000,,,,,-1.666,-0.716,-0.753,0,0,0,0,0
13.396,1783028607.384,DISARMED,idle,-1.00,0.00,-1.00,0.000,0.000,0.000,0.000,,,,,-1.651,-0.734,-0.752,0,0,0,0,0
13.429,1783028607.417,DISARMED,idle,-1.00,0.00,-1.00,0.000,0.000,0.000,0.000,,,,,-1.68,-0.702,-0.748,0,0,0,0,0
13.464,1783028607.451,DISARMED,idle,-1.00,0.00,-1.00,0.000,0.000,0.000,0.000,,,,,-1.68,-0.702,-0.748,0,0,0,0,0
13.498,1783028607.485,DISARMED,idle,-1.00,0.00,-1.00,0.000,0.000,0.000,0.000,,,,,-1.68,-0.702,-0.748,0,0,0,0,0
13.532,1783028607.520,DISARMED,idle,-1.00,0.00,-1.00,0.000,0.000,0.000,0.000,,,,,-1.68,-0.702,-0.748,0,0,0,0,0
13.566,1783028607.554,DISARMED,idle,-1.00,0.00,-1.00,0.000,0.000,0.000,0.000,,,,,-1.722,-0.614,-0.753,0,0,0,0,0
13.600,1783028607.587,DISARMED,idle,-1.00,0.00,-1.00,0.000,0.000,0.000,0.000,,,,,-1.722,-0.614,-0.753,0,0,0,0,0
13.634,1783028607.621,DISARMED,idle,-1.00,0.00,-1.00,0.000,0.000,0.000,0.000,,,,,-1.722,-0.614,-0.753,0,0,0,0,0
13.668,1783028607.655,DISARMED,idle,-1.00,0.00,-1.00,0.000,0.000,0.000,0.000,,,,,-1.722,-0.614,-0.753,0,0,0,0,0
13.702,1783028607.689,DISARMED,idle,-1.00,0.00,-1.00,0.000,0.000,0.000,0.000,,,,,-1.746,-0.58,-0.756,0,0,0,0,0
13.736,1783028607.724,DISARMED,idle,-1.00,0.00,-1.00,0.000,0.000,0.000,0.000,,,,,-1.743,-0.571,-0.757,0,0,0,0,0
13.770,1783028607.758,DISARMED,idle,-1.00,0.00,-1.00,0.000,0.000,0.000,0.000,,,,,-1.743,-0.571,-0.757,0,0,0,0,0
13.803,1783028607.791,DISARMED,idle,-1.00,0.00,-1.00,0.000,0.000,0.000,0.000,,,,,-1.743,-0.571,-0.757,0,0,0,0,0
13.838,1783028607.825,DISARMED,idle,-1.00,0.00,-1.00,0.000,0.000,0.000,0.000,,,,,-1.742,-0.57,-0.758,0,0,0,0,0
13.872,1783028607.860,DISARMED,idle,-1.00,0.00,-1.00,0.000,0.000,0.000,0.000,,,,,-1.747,-0.562,-0.758,0,0,0,0,0
13.905,1783028607.893,DISARMED,idle,-1.00,0.00,-1.00,0.000,0.000,0.000,0.000,,,,,-1.747,-0.562,-0.758,0,0,0,0,0
13.939,1783028607.927,DISARMED,idle,-1.00,0.00,-1.00,0.000,0.000,0.000,0.000,,,,,-1.739,-0.562,-0.756,0,0,0,0,0
13.974,1783028607.961,DISARMED,idle,-1.00,0.00,-1.00,0.000,0.000,0.000,0.000,,,,,-1.739,-0.562,-0.756,0,0,0,0,0
14.007,1783028607.995,DISARMED,idle,-1.00,0.00,-1.00,0.000,0.000,0.000,0.000,,,,,-1.739,-0.562,-0.756,0,0,0,0,0
14.042,1783028608.029,DISARMED,idle,-1.00,0.00,-1.00,0.000,0.000,0.000,0.000,,,,,-1.739,-0.562,-0.756,0,0,0,0,0
14.075,1783028608.063,DISARMED,idle,-1.00,0.00,-1.00,0.000,0.000,0.000,0.000,,,,,-1.739,-0.562,-0.756,0,0,0,0,0
14.110,1783028608.097,DISARMED,idle,-1.00,0.00,-1.00,0.000,0.000,0.000,0.000,,,,,-1.738,-0.549,-0.758,0,0,0,0,0
14.144,1783028608.131,DISARMED,idle,-1.00,0.00,-1.00,0.000,0.000,0.000,0.000,,,,,-1.739,-0.541,-0.756,0,0,0,0,0
14.199,1783028608.187,ARMED,move r+0.00 p+0.00 g+0.00 y+0.00,1.00,0.00,-1.00,0.000,0.000,0.000,0.000,0.000,0.000,0.000,0.000,-1.738,-0.543,-0.758,0,0,0,0,0
14.210,1783028608.198,ARMED,move r+0.00 p+0.00 g+0.00 y+0.00,1.00,0.00,-1.00,0.000,0.000,0.000,0.000,0.000,0.000,0.000,0.000,-1.738,-0.543,-0.758,0,0,0,0,0
14.245,1783028608.233,ARMED,move r+0.00 p+0.00 g+0.00 y+0.00,1.00,0.00,-1.00,0.000,0.000,0.000,0.000,0.000,0.000,0.000,0.000,-1.738,-0.543,-0.758,0,0,0,0,0
14.279,1783028608.266,ARMED,move r+0.00 p+0.00 g+0.00 y+0.00,1.00,0.00,-1.00,0.000,0.000,0.000,0.000,0.000,0.000,0.000,0.000,0.005,-0.01,-0.759,0,0,0,0,0
14.313,1783028608.300,ARMED,move r+0.00 p+0.00 g+0.00 y+0.00,1.00,0.00,-1.00,0.000,0.000,0.000,0.000,0.000,0.000,0.000,0.000,0.013,-0.024,-0.76,0,0,0,0,0
14.347,1783028608.335,ARMED,move r+0.00 p+0.00 g+0.00 y+0.00,1.00,0.00,-1.00,0.000,0.000,0.000,0.000,0.000,0.000,0.000,0.000,0.013,-0.024,-0.76,0,0,0,0,0
14.381,1783028608.369,ARMED,move r+0.00 p+0.00 g+0.00 y+0.00,1.00,0.00,-1.00,0.000,0.000,0.000,0.000,0.000,0.000,0.000,0.000,0.021,-0.051,-0.762,0,0,0,0,0
14.415,1783028608.402,ARMED,move r+0.00 p+0.00 g+0.00 y+0.00,1.00,0.00,-1.00,0.000,0.000,0.000,0.000,0.000,0.000,0.000,0.000,0.021,-0.051,-0.762,0,0,0,0,0
14.449,1783028608.437,ARMED,move r+0.00 p+0.00 g+0.00 y+0.00,1.00,0.00,-1.00,0.000,0.000,0.000,0.000,0.000,0.000,0.000,0.000,0.029,-0.077,-0.761,0,0,0,0,0
14.483,1783028608.471,ARMED,move r+0.00 p+0.00 g+0.00 y+0.00,1.00,0.00,-1.00,0.000,0.000,0.000,0.000,0.000,0.000,0.000,0.000,0.029,-0.077,-0.761,0,0,0,0,0
14.517,1783028608.505,ARMED,move r+0.00 p+0.00 g+0.00 y+0.00,1.00,0.00,-1.00,0.000,0.000,0.000,0.000,0.000,0.000,0.000,0.000,0.031,-0.103,-0.76,0,0,0,0,0
14.550,1783028608.538,ARMED,move r+0.00 p+0.00 g+0.00 y+0.00,1.00,0.00,-1.00,0.000,0.000,0.000,0.000,0.000,0.000,0.000,0.000,0.031,-0.103,-0.76,0,0,0,0,0
14.585,1783028608.572,ARMED,move r+0.00 p+0.00 g+0.00 y+0.00,1.00,0.00,-1.00,0.000,0.000,0.000,0.000,0.000,0.000,0.000,0.000,0.032,-0.122,-0.762,0,0,0,0,0
14.619,1783028608.607,ARMED,move r+0.00 p+0.00 g+0.00 y+0.00,1.00,0.00,-1.00,0.000,0.000,0.000,0.000,0.000,0.000,0.000,0.000,0.032,-0.122,-0.762,0,0,0,0,0
14.653,1783028608.641,ARMED,move r+0.00 p+0.00 g+0.00 y+0.00,1.00,0.00,-1.00,0.000,0.000,0.000,0.000,0.000,0.000,0.000,0.000,0.041,-0.146,-0.76,0,0,0,0,0
14.687,1783028608.674,ARMED,move r+0.00 p+0.00 g+0.00 y+0.00,1.00,0.00,-1.00,0.000,0.000,0.000,0.000,0.000,0.000,0.000,0.000,0.041,-0.146,-0.76,0,0,0,0,0
14.721,1783028608.709,ARMED,move r+0.00 p+0.00 g+0.00 y+0.00,1.00,0.00,-1.00,0.000,0.000,0.000,0.000,0.000,0.000,0.000,0.000,0.054,-0.172,-0.76,0,0,0,0,0
14.755,1783028608.743,ARMED,move r+0.00 p+0.00 g+0.00 y+0.00,1.00,0.00,-1.00,0.000,0.000,0.000,0.000,0.000,0.000,0.000,0.000,0.054,-0.172,-0.76,0,0,0,0,0
14.789,1783028608.776,ARMED,move r+0.00 p+0.00 g+0.00 y+0.00,1.00,0.00,-1.00,0.000,0.000,0.000,0.000,0.000,0.000,0.000,0.000,0.061,-0.182,-0.76,0,0,0,0,0
14.823,1783028608.811,ARMED,move r+0.00 p+0.00 g+0.00 y+0.00,1.00,0.00,-1.00,0.000,0.000,0.000,0.000,0.000,0.000,0.000,0.000,0.061,-0.182,-0.76,0,0,0,0,0
14.856,1783028608.844,ARMED,move r+0.00 p+0.00 g+0.00 y+0.00,1.00,0.00,-1.00,0.000,0.000,0.000,0.000,0.000,0.000,0.000,0.000,0.066,-0.202,-0.76,0,0,0,0,0
14.890,1783028608.877,ARMED,move r+0.00 p+0.00 g+0.00 y+0.00,1.00,0.00,-1.00,0.000,0.000,0.000,0.000,0.000,0.000,0.000,0.000,0.066,-0.202,-0.76,0,0,0,0,0
14.924,1783028608.911,ARMED,move r+0.00 p+0.00 g+0.00 y+0.00,1.00,0.00,-1.00,0.000,0.000,0.000,0.000,0.000,0.000,0.000,0.000,0.068,-0.208,-0.762,0,0,0,0,0
14.958,1783028608.946,ARMED,move r+0.00 p+0.00 g+0.00 y+0.00,1.00,0.00,-1.00,0.000,0.000,0.000,0.000,0.000,0.000,0.000,0.000,0.068,-0.208,-0.762,0,0,0,0,0
14.992,1783028608.980,ARMED,move r+0.00 p+0.00 g+0.00 y+0.00,1.00,0.00,-1.00,0.000,0.000,0.000,0.000,0.000,0.000,0.000,0.000,0.076,-0.225,-0.762,0,0,0,0,0
15.026,1783028609.013,ARMED,move r+0.00 p+0.00 g+0.00 y+0.00,1.00,0.00,-1.00,0.000,0.000,0.000,0.000,0.000,0.000,0.000,0.000,0.076,-0.225,-0.762,0,0,0,0,0
15.060,1783028609.048,ARMED,move r+0.00 p+0.00 g+0.00 y+0.00,1.00,0.00,-1.00,0.000,0.000,0.000,0.000,0.000,0.000,0.000,0.000,0.083,-0.231,-0.762,0,0,0,0,0
15.094,1783028609.081,ARMED,move r+0.00 p+0.00 g+0.00 y+0.00,1.00,0.00,-1.00,0.000,0.000,0.000,0.000,0.000,0.000,0.000,0.000,0.09,-0.244,-0.763,0,0,0,0,0
15.128,1783028609.116,ARMED,move r+0.00 p+0.00 g+0.00 y+0.00,1.00,0.00,-1.00,0.000,0.000,0.000,0.000,0.000,0.000,0.000,0.000,0.09,-0.244,-0.763,0,0,0,0,0
15.162,1783028609.150,ARMED,move r+0.00 p+0.00 g+0.00 y+0.00,1.00,0.00,-1.00,0.000,0.000,0.000,0.000,0.000,0.000,0.000,0.000,0.087,-0.262,-0.763,0,0,0,0,0
15.196,1783028609.183,ARMED,move r+0.00 p+0.00 g+0.00 y+0.00,1.00,0.00,-1.00,0.000,0.000,0.000,0.000,0.000,0.000,0.000,0.000,0.087,-0.262,-0.763,0,0,0,0,0
15.229,1783028609.217,ARMED,move r+0.00 p+0.00 g+0.00 y+0.00,1.00,0.00,-1.00,0.000,0.000,0.000,0.000,0.000,0.000,0.000,0.000,0.08,-0.267,-0.762,0,0,0,0,0
15.264,1783028609.251,ARMED,move r+0.00 p+0.00 g+0.00 y+0.00,1.00,0.00,-1.00,0.000,0.000,0.000,0.000,0.000,0.000,0.000,0.000,0.08,-0.267,-0.762,0,0,0,0,0
15.296,1783028609.284,ARMED,move r+0.00 p+0.00 g+0.00 y+0.00,1.00,0.00,-1.00,0.000,0.000,0.000,0.000,0.000,0.000,0.000,0.000,0.077,-0.281,-0.764,0,0,0,0,0
15.330,1783028609.318,ARMED,move r+0.00 p+0.00 g+0.00 y+0.00,1.00,0.00,-1.00,0.000,0.000,0.000,0.000,0.000,0.000,0.000,0.000,0.077,-0.281,-0.764,0,0,0,0,0
15.364,1783028609.351,ARMED,move r+0.00 p+0.00 g+0.00 y+0.00,1.00,0.00,-1.00,0.000,0.000,0.000,0.000,0.000,0.000,0.000,0.000,0.078,-0.3,-0.764,0,0,0,0,0
15.397,1783028609.384,ARMED,move r+0.00 p+0.00 g+0.00 y+0.00,1.00,0.00,-1.00,0.000,0.000,0.000,0.000,0.000,0.000,0.000,0.000,0.078,-0.3,-0.764,0,0,0,0,0
15.431,1783028609.419,ARMED,move r+0.00 p+0.00 g+0.00 y+0.00,1.00,0.00,-1.00,0.000,0.000,0.000,0.000,0.000,0.000,0.000,0.000,0.084,-0.31,-0.765,0,0,0,0,0
15.465,1783028609.453,ARMED,move r+0.00 p+0.00 g+0.00 y+0.00,1.00,0.00,-1.00,0.000,0.000,0.000,0.000,0.000,0.000,0.000,0.000,0.084,-0.31,-0.765,0,0,0,0,0
15.499,1783028609.486,ARMED,move r+0.00 p+0.00 g+0.00 y+0.00,1.00,0.00,-1.00,0.000,0.000,0.000,0.000,0.000,0.000,0.000,0.000,0.09,-0.316,-0.764,0,0,0,0,0
15.533,1783028609.521,ARMED,move r+0.00 p+0.00 g+0.00 y+0.00,1.00,0.00,-1.00,0.000,0.000,0.000,0.000,0.000,0.000,0.000,0.000,0.09,-0.316,-0.764,0,0,0,0,0
15.566,1783028609.554,ARMED,move r+0.00 p+0.00 g+0.00 y+0.00,1.00,0.00,-1.00,0.000,0.000,0.000,0.000,0.000,0.000,0.000,0.000,0.089,-0.332,-0.765,0,0,0,0,0
15.600,1783028609.588,ARMED,move r+0.00 p+0.00 g+0.00 y+0.00,1.00,0.00,-1.00,0.000,0.000,0.000,0.000,0.000,0.000,0.000,0.000,0.089,-0.332,-0.765,0,0,0,0,0
15.635,1783028609.622,ARMED,move r+0.00 p+0.00 g+0.00 y+0.00,1.00,0.00,-1.00,0.000,0.000,0.000,0.000,0.000,0.000,0.000,0.000,0.091,-0.347,-0.765,0,0,0,0,0
15.669,1783028609.656,ARMED,move r+0.00 p+0.00 g+0.00 y+0.00,1.00,0.00,-1.00,0.000,0.000,0.000,0.000,0.000,0.000,0.000,0.000,0.091,-0.347,-0.765,0,0,0,0,0
15.702,1783028609.690,ARMED,move r+0.00 p+0.00 g+0.00 y+0.00,1.00,0.00,-1.00,0.000,0.000,0.000,0.000,0.000,0.000,0.000,0.000,0.091,-0.357,-0.765,0,0,0,0,0
15.736,1783028609.723,ARMED,move r+0.00 p+0.00 g+0.00 y+0.00,1.00,0.00,-1.00,0.000,0.000,0.000,0.000,0.000,0.000,0.000,0.000,0.091,-0.357,-0.765,0,0,0,0,0
15.770,1783028609.758,ARMED,move r+0.00 p+0.00 g+0.00 y+0.00,1.00,0.00,-1.00,0.000,0.000,0.000,0.000,0.000,0.000,0.000,0.000,0.095,-0.36,-0.767,0,0,0,0,0
15.804,1783028609.791,ARMED,move r+0.00 p+0.00 g+0.00 y+0.00,1.00,0.00,-1.00,0.000,0.000,0.000,0.000,0.000,0.000,0.000,0.000,0.095,-0.36,-0.767,0,0,0,0,0
15.838,1783028609.825,ARMED,move r+0.00 p+0.00 g+0.00 y+0.00,1.00,0.00,-1.00,0.000,0.000,0.000,0.000,0.000,0.000,0.000,0.000,0.099,-0.367,-0.769,0,0,0,0,0
15.872,1783028609.860,ARMED,move r+0.00 p+0.00 g+0.00 y+0.00,1.00,0.00,-1.00,0.000,0.000,0.000,0.000,0.000,0.000,0.000,0.000,0.099,-0.367,-0.769,0,0,0,0,0
15.906,1783028609.894,ARMED,move r+0.00 p+0.00 g+0.00 y+0.00,1.00,0.00,-1.00,0.000,0.000,0.000,0.000,0.000,0.000,0.000,0.000,0.104,-0.382,-0.771,0,0,0,0,0
15.939,1783028609.927,ARMED,move r+0.00 p+0.00 g+0.00 y+0.00,1.00,0.00,-1.00,0.000,0.000,0.000,0.000,0.000,0.000,0.000,0.000,0.109,-0.392,-0.771,0,0,0,0,0
15.973,1783028609.961,ARMED,move r+0.00 p+0.00 g+0.00 y+0.00,1.00,0.00,-1.00,0.000,0.000,0.000,0.000,0.000,0.000,0.000,0.000,0.109,-0.392,-0.771,0,0,0,0,0
16.008,1783028609.995,ARMED,move r+0.00 p+0.00 g+0.00 y+0.00,1.00,0.00,-1.00,0.000,0.000,0.000,0.000,0.000,0.000,0.000,0.000,0.116,-0.406,-0.771,0,0,0,0,0
16.041,1783028610.029,ARMED,move r+0.00 p+0.00 g+0.00 y+0.00,1.00,0.00,-1.00,0.000,0.000,0.000,0.000,0.000,0.000,0.000,0.000,0.116,-0.406,-0.771,0,0,0,0,0
16.076,1783028610.064,ARMED,move r+0.00 p+0.00 g+0.00 y+0.00,1.00,0.00,-1.00,0.000,0.000,0.000,0.000,0.000,0.000,0.000,0.000,0.118,-0.413,-0.772,0,0,0,0,0
16.110,1783028610.098,ARMED,move r+0.00 p+0.00 g+0.00 y+0.00,1.00,0.00,-1.00,0.000,0.000,0.000,0.000,0.000,0.000,0.000,0.000,0.118,-0.413,-0.772,0,0,0,0,0
16.144,1783028610.132,ARMED,move r+0.00 p+0.00 g+0.00 y+0.00,1.00,0.00,-1.00,0.000,0.000,0.000,0.000,0.000,0.000,0.000,0.000,0.119,-0.422,-0.771,0,0,0,0,0
16.178,1783028610.165,ARMED,move r+0.00 p+0.00 g+0.00 y+0.00,1.00,0.00,-1.00,0.000,0.000,0.000,0.000,0.000,0.000,0.000,0.000,0.119,-0.422,-0.771,0,0,0,0,0
16.212,1783028610.199,ARMED,move r+0.00 p+0.00 g+0.00 y+0.00,1.00,0.00,-1.00,0.000,0.000,0.000,0.000,0.000,0.000,0.000,0.000,0.123,-0.434,-0.772,0,0,0,0,0
16.246,1783028610.234,ARMED,move r+0.00 p+0.00 g+0.00 y+0.00,1.00,0.00,-1.00,0.000,0.000,0.000,0.000,0.000,0.000,0.000,0.000,0.123,-0.434,-0.772,0,0,0,0,0
16.280,1783028610.267,ARMED,move r+0.00 p+0.00 g+0.00 y+0.00,1.00,0.00,-1.00,0.000,0.000,0.000,0.000,0.000,0.000,0.000,0.000,0.128,-0.445,-0.774,0,0,0,0,0
16.313,1783028610.300,ARMED,move r+0.00 p+0.00 g+0.00 y+0.00,1.00,0.00,-1.00,0.000,0.000,0.000,0.000,0.000,0.000,0.000,0.000,0.128,-0.445,-0.774,0,0,0,0,0
16.347,1783028610.334,ARMED,move r+0.00 p+0.00 g+0.00 y+0.00,1.00,0.00,-1.00,0.000,0.000,0.000,0.000,0.000,0.000,0.000,0.000,0.133,-0.452,-0.774,0,0,0,0,0
16.381,1783028610.368,ARMED,move r+0.00 p+0.00 g+0.00 y+0.00,1.00,0.00,-1.00,0.000,0.000,0.000,0.000,0.000,0.000,0.000,0.000,0.133,-0.452,-0.774,0,0,0,0,0
16.415,1783028610.402,ARMED,move r+0.00 p+0.00 g+0.00 y+0.00,1.00,0.00,-1.00,0.000,0.000,0.000,0.000,0.000,0.000,0.000,0.000,0.127,-0.456,-0.776,0,0,0,0,0
16.449,1783028610.437,ARMED,move r+0.00 p+0.00 g+0.00 y+0.00,1.00,0.00,-1.00,0.000,0.000,0.000,0.000,0.000,0.000,0.000,0.000,0.127,-0.456,-0.776,0,0,0,0,0
16.483,1783028610.471,ARMED,move r+0.00 p+0.00 g+0.00 y+0.00,1.00,0.00,-1.00,0.000,0.000,0.000,0.000,0.000,0.000,0.000,0.000,0.124,-0.45,-0.776,0,0,0,0,0
16.517,1783028610.505,ARMED,move r+0.00 p+0.00 g+0.00 y+0.00,1.00,0.00,-1.00,0.000,0.000,0.000,0.000,0.000,0.000,0.000,0.000,0.124,-0.45,-0.776,0,0,0,0,0
16.550,1783028610.538,ARMED,move r+0.00 p+0.00 g+0.00 y+0.00,1.00,0.00,-1.00,0.000,0.000,0.000,0.000,0.000,0.000,0.000,0.000,0.128,-0.459,-0.779,0,0,0,0,0
16.585,1783028610.573,ARMED,move r+0.00 p+0.00 g+0.00 y+0.00,1.00,0.00,-1.00,0.000,0.000,0.000,0.000,0.000,0.000,0.000,0.000,0.128,-0.459,-0.779,0,0,0,0,0
16.620,1783028610.607,ARMED,move r+0.00 p+0.00 g+0.00 y+0.00,1.00,0.00,-1.00,0.000,0.000,0.000,0.000,0.000,0.000,0.000,0.000,0.124,-0.471,-0.778,0,0,0,0,0
16.652,1783028610.640,ARMED,move r+0.00 p+0.00 g+0.00 y+0.00,1.00,0.00,-1.00,0.000,0.000,0.000,0.000,0.000,0.000,0.000,0.000,0.124,-0.471,-0.778,0,0,0,0,0
16.686,1783028610.673,ARMED,move r+0.00 p+0.00 g+0.00 y+0.00,1.00,0.00,-1.00,0.000,0.000,0.000,0.000,0.000,0.000,0.000,0.000,0.129,-0.479,-0.777,0,0,0,0,0
16.720,1783028610.708,ARMED,move r+0.00 p+0.00 g+0.00 y+0.00,1.00,0.00,-1.00,0.000,0.000,0.000,0.000,0.000,0.000,0.000,0.000,0.136,-0.486,-0.775,0,0,0,0,0
16.754,1783028610.741,ARMED,move r+0.00 p+0.00 g+0.00 y+0.00,1.00,0.00,-1.00,0.000,0.000,0.000,0.000,0.000,0.000,0.000,0.000,0.136,-0.486,-0.775,0,0,0,0,0
16.788,1783028610.775,ARMED,move r+0.00 p+0.00 g+0.00 y+0.00,1.00,0.00,-1.00,0.000,0.000,0.000,0.000,0.000,0.000,0.000,0.000,0.138,-0.497,-0.775,0,0,0,0,0
16.822,1783028610.809,ARMED,move r+0.00 p+0.00 g+0.00 y+0.00,1.00,0.00,-1.00,0.000,0.000,0.000,0.000,0.000,0.000,0.000,0.000,0.138,-0.497,-0.775,0,0,0,0,0
16.856,1783028610.843,ARMED,move r+0.00 p+0.00 g+0.00 y+0.00,1.00,0.00,-1.00,0.000,0.000,0.000,0.000,0.000,0.000,0.000,0.000,0.129,-0.496,-0.775,0,0,0,0,0
16.890,1783028610.878,ARMED,move r+0.00 p+0.00 g+0.00 y+0.00,1.00,0.00,-1.00,0.000,0.000,0.000,0.000,0.000,0.000,0.000,0.000,0.129,-0.496,-0.775,0,0,0,0,0
16.924,1783028610.911,ARMED,move r+0.00 p+0.00 g+0.00 y+0.00,1.00,0.00,-1.00,0.000,0.000,0.000,0.000,0.000,0.000,0.000,0.000,0.123,-0.477,-0.776,0,0,0,0,0
16.958,1783028610.946,ARMED,move r+0.00 p+0.00 g+0.00 y+0.00,1.00,0.00,-1.00,0.000,0.000,0.000,0.000,0.000,0.000,0.000,0.000,0.123,-0.477,-0.776,0,0,0,0,0
16.993,1783028610.980,ARMED,move r+0.00 p+0.00 g+0.00 y+0.00,1.00,0.00,-1.00,0.000,0.000,0.000,0.000,0.000,0.000,0.000,0.000,0.122,-0.47,-0.773,0,0,0,0,0
17.028,1783028611.015,ARMED,move r+0.00 p+0.00 g+0.00 y+0.00,1.00,0.00,-1.00,0.000,0.000,0.000,0.000,0.000,0.000,0.000,0.000,0.122,-0.47,-0.773,0,0,0,0,0
17.062,1783028611.050,ARMED,move r+0.00 p+0.00 g+0.00 y+0.00,1.00,0.00,-1.00,0.000,0.000,0.000,0.000,0.000,0.000,0.000,0.000,0.12,-0.473,-0.773,0,0,0,0,0
17.096,1783028611.083,ARMED,move r+0.00 p+0.00 g+0.00 y+0.00,1.00,0.00,-1.00,0.000,0.000,0.000,0.000,0.000,0.000,0.000,0.000,0.12,-0.473,-0.773,0,0,0,0,0
17.130,1783028611.118,ARMED,move r+0.00 p+0.00 g+0.00 y+0.00,1.00,0.00,-1.00,0.000,0.000,0.000,0.000,0.000,0.000,0.000,0.000,0.12,-0.467,-0.775,0,0,0,0,0
17.164,1783028611.151,ARMED,move r+0.00 p+0.00 g+0.00 y+0.00,1.00,0.00,-1.00,0.000,0.000,0.000,0.000,0.000,0.000,0.000,0.000,0.12,-0.467,-0.775,0,0,0,0,0
17.197,1783028611.185,ARMED,move r+0.00 p+0.00 g+0.00 y+0.00,1.00,0.00,-1.00,0.000,0.000,0.000,0.000,0.000,0.000,0.000,0.000,0.111,-0.462,-0.774,0,0,0,0,0
17.231,1783028611.219,ARMED,move r+0.00 p+0.00 g+0.00 y+0.00,1.00,0.00,-1.00,0.000,0.000,0.000,0.000,0.000,0.000,0.000,0.000,0.111,-0.462,-0.774,0,0,0,0,0
17.265,1783028611.252,ARMED,move r+0.00 p+0.00 g+0.00 y+0.00,1.00,0.00,-1.00,0.000,0.000,0.000,0.000,0.000,0.000,0.000,0.000,0.115,-0.457,-0.775,0,0,0,0,0
17.299,1783028611.286,ARMED,move r+0.00 p+0.00 g+0.00 y+0.00,1.00,0.00,-1.00,0.000,0.000,0.000,0.000,0.000,0.000,0.000,0.000,0.115,-0.457,-0.775,0,0,0,0,0
17.333,1783028611.320,ARMED,move r+0.00 p+0.00 g+0.00 y+0.00,1.00,0.00,-1.00,0.000,0.000,0.000,0.000,0.000,0.000,0.000,0.000,0.127,-0.467,-0.776,0,0,0,0,0
17.366,1783028611.354,ARMED,TAKEOFF,1.00,1.00,-1.00,0.000,0.000,0.000,0.000,,,,,0.127,-0.467,-0.776,0,0,0,0,0
17.400,1783028611.387,ARMED,TAKEOFF,1.00,1.00,-1.00,0.000,0.000,0.000,0.000,,,,,0.129,-0.465,-0.774,0,0,0,0,0
17.433,1783028611.421,ARMED,move r+0.00 p+0.00 g+0.00 y+0.00,1.00,0.00,-1.00,0.000,0.000,0.000,0.000,0.000,0.000,0.000,0.000,0.129,-0.465,-0.774,0,0,0,0,0
17.468,1783028611.456,ARMED,move r+0.00 p+0.00 g+0.00 y+0.00,1.00,0.00,-1.00,0.000,0.000,0.000,0.000,0.000,0.000,0.000,0.000,0.133,-0.458,-0.772,0,70,70,70,70
17.502,1783028611.489,ARMED,move r+0.00 p+0.00 g+0.00 y+0.00,1.00,0.00,-1.00,0.000,0.000,0.000,0.000,0.000,0.000,0.000,0.000,0.133,-0.458,-0.772,0,70,70,70,70
17.536,1783028611.523,ARMED,move r+0.00 p+0.00 g+0.00 y+0.00,1.00,0.00,-1.00,0.000,0.000,0.000,0.000,0.000,0.000,0.000,0.000,0.129,-0.462,-0.773,0,70,70,70,70
17.570,1783028611.557,ARMED,move r+0.00 p+0.00 g+0.00 y+0.00,1.00,0.00,-1.00,0.000,0.000,0.000,0.000,0.000,0.000,0.000,0.000,0.129,-0.462,-0.773,0,70,70,70,70
17.604,1783028611.591,ARMED,move r+0.00 p+0.00 g+0.00 y+0.00,1.00,0.00,-1.00,0.000,0.000,0.000,0.000,0.000,0.000,0.000,0.000,0.13,-0.46,-0.771,0,70,70,70,70
17.638,1783028611.625,ARMED,move r+0.00 p+0.00 g+0.00 y+0.00,1.00,0.00,-1.00,0.000,0.000,0.000,0.000,0.000,0.000,0.000,0.000,0.13,-0.46,-0.771,0,70,70,70,70
17.672,1783028611.660,ARMED,move r+0.00 p+0.00 g+0.00 y+0.00,1.00,0.00,-1.00,0.000,0.000,0.000,0.000,0.000,0.000,0.000,0.000,0.129,-0.457,-0.77,0,70,70,70,70
17.705,1783028611.693,ARMED,move r+0.00 p+0.00 g+0.00 y+0.00,1.00,0.00,-1.00,0.000,0.000,0.000,0.000,0.000,0.000,0.000,0.000,0.129,-0.457,-0.77,0,70,70,70,70
17.739,1783028611.727,ARMED,move r+0.00 p+0.00 g+0.00 y+0.00,1.00,0.00,-1.00,0.000,0.000,0.000,0.000,0.000,0.000,0.000,0.000,0.133,-0.454,-0.771,0,70,70,70,70
17.772,1783028611.760,ARMED,move r+0.00 p+0.00 g+0.00 y+0.00,1.00,0.00,-1.00,0.000,0.000,0.000,0.000,0.000,0.000,0.000,0.000,0.133,-0.454,-0.771,0,70,70,70,70
17.806,1783028611.794,ARMED,move r+0.00 p+0.00 g+0.00 y+0.00,1.00,0.00,-1.00,0.000,0.000,0.000,0.000,0.000,0.000,0.000,0.000,0.13,-0.464,-0.771,0,70,70,70,70
17.840,1783028611.827,ARMED,move r+0.00 p+0.00 g+0.00 y+0.00,1.00,0.00,-1.00,0.000,0.000,0.000,0.000,0.000,0.000,0.000,0.000,0.13,-0.464,-0.771,0,70,70,70,70
17.874,1783028611.862,ARMED,move r+0.00 p+0.00 g+0.00 y+0.00,1.00,0.00,-1.00,0.000,0.000,0.000,0.000,0.000,0.000,0.000,0.000,0.136,-0.471,-0.772,0,70,70,70,70
17.908,1783028611.896,ARMED,move r+0.00 p+0.00 g+0.00 y+0.00,1.00,0.00,-1.00,0.000,0.000,0.000,0.000,0.000,0.000,0.000,0.000,0.136,-0.471,-0.772,0,70,70,70,70
17.941,1783028611.929,ARMED,move r+0.00 p+0.00 g+0.00 y+0.00,1.00,0.00,-1.00,0.000,0.000,0.000,0.000,0.000,0.000,0.000,0.000,0.142,-0.474,-0.769,0,70,70,70,70
17.975,1783028611.963,ARMED,move r+0.00 p+0.00 g+0.00 y+0.00,1.00,0.00,-1.00,0.000,0.000,0.000,0.000,0.000,0.000,0.000,0.000,0.142,-0.474,-0.769,0,70,70,70,70
18.009,1783028611.997,ARMED,move r+0.00 p+0.00 g+0.00 y+0.00,1.00,0.00,-1.00,0.000,0.000,0.000,0.000,0.000,0.000,0.000,0.000,0.144,-0.47,-0.772,0,70,70,70,70
18.043,1783028612.031,ARMED,move r+0.00 p+0.00 g+0.00 y+0.00,1.00,0.00,-1.00,0.000,0.000,0.000,0.000,0.000,0.000,0.000,0.000,0.144,-0.47,-0.772,0,70,70,70,70
18.078,1783028612.066,ARMED,move r+0.00 p+0.00 g+0.00 y+0.00,1.00,0.00,-1.00,0.000,0.000,0.000,0.000,0.000,0.000,0.000,0.000,0.142,-0.46,-0.774,0,70,70,70,70
18.112,1783028612.099,ARMED,move r+0.00 p+0.00 g+0.00 y+0.00,1.00,0.00,-1.00,0.000,0.000,0.000,0.000,0.000,0.000,0.000,0.000,0.142,-0.452,-0.772,0,70,70,70,70
18.146,1783028612.133,ARMED,move r+0.00 p+0.00 g+0.00 y+0.00,1.00,0.00,-1.00,0.000,0.000,0.000,0.000,0.000,0.000,0.000,0.000,0.142,-0.452,-0.772,0,70,70,70,70
18.180,1783028612.167,ARMED,move r+0.00 p+0.00 g+0.00 y+0.00,1.00,0.00,-1.00,0.000,0.000,0.000,0.000,0.000,0.000,0.000,0.000,0.139,-0.444,-0.77,0,70,70,70,70
18.214,1783028612.201,ARMED,move r+0.00 p+0.00 g+0.00 y+0.00,1.00,0.00,-1.00,0.000,0.000,0.000,0.000,0.000,0.000,0.000,0.000,0.139,-0.444,-0.77,0,70,70,70,70
18.247,1783028612.235,ARMED,move r+0.00 p+0.00 g+0.00 y+0.00,1.00,0.00,-1.00,0.000,0.000,0.000,0.000,0.000,0.000,0.000,0.000,0.142,-0.442,-0.77,0,72,72,72,72
18.281,1783028612.268,ARMED,move r+0.00 p+0.00 g+0.00 y+0.00,1.00,0.00,-1.00,0.000,0.000,0.000,0.000,0.000,0.000,0.000,0.000,0.142,-0.442,-0.77,0,72,72,72,72
18.315,1783028612.302,ARMED,move r+0.00 p+0.00 g+0.00 y+0.00,1.00,0.00,-1.00,0.000,0.000,0.000,0.000,0.000,0.000,0.000,0.000,0.135,-0.429,-0.77,0,72,72,72,72
18.347,1783028612.335,ARMED,move r+0.00 p+0.00 g+0.00 y+0.00,1.00,0.00,-1.00,0.000,0.000,0.000,0.000,0.000,0.000,0.000,0.000,0.135,-0.429,-0.77,0,72,72,72,72
18.381,1783028612.369,ARMED,move r+0.00 p+0.00 g+0.00 y+0.00,1.00,0.00,-1.00,0.000,0.000,0.000,0.000,0.000,0.000,0.000,0.000,0.135,-0.401,-0.767,0,72,72,72,72
18.415,1783028612.403,ARMED,move r+0.00 p+0.00 g+0.00 y+0.00,1.00,0.00,-1.00,0.000,0.000,0.000,0.000,0.000,0.000,0.000,0.000,0.135,-0.401,-0.767,0,72,72,72,72
18.449,1783028612.437,ARMED,move r+0.00 p+0.00 g+0.00 y+0.00,1.00,0.00,-1.00,0.000,0.000,0.000,0.000,0.000,0.000,0.000,0.000,0.131,-0.377,-0.77,0,72,72,72,72
18.485,1783028612.472,ARMED,move r+0.00 p+0.00 g+0.00 y+0.00,1.00,0.00,-1.00,0.000,0.000,0.000,0.000,0.000,0.000,0.000,0.000,0.131,-0.377,-0.77,0,72,72,72,72
18.516,1783028612.504,ARMED,move r+0.00 p+0.00 g+0.00 y+0.00,1.00,0.00,-1.00,0.000,0.000,0.000,0.000,0.000,0.000,0.000,0.000,0.123,-0.366,-0.774,0,72,72,72,72
18.550,1783028612.537,ARMED,move r+0.00 p+0.00 g+0.00 y+0.00,1.00,0.00,-1.00,0.000,0.000,0.000,0.000,0.000,0.000,0.000,0.000,0.123,-0.366,-0.774,0,72,72,72,72
18.584,1783028612.572,ARMED,move r+0.00 p+0.00 g+0.00 y+0.00,1.00,0.00,-1.00,0.000,0.000,0.000,0.000,0.000,0.000,0.000,0.000,0.115,-0.357,-0.773,0,72,72,72,72
18.618,1783028612.605,ARMED,move r+0.00 p+0.00 g+0.00 y+0.00,1.00,0.00,-1.00,0.000,0.000,0.000,0.000,0.000,0.000,0.000,0.000,0.115,-0.357,-0.773,0,72,72,72,72
18.652,1783028612.640,ARMED,move r+0.00 p+0.00 g+0.00 y+0.00,1.00,0.00,-1.00,0.000,0.000,0.000,0.000,0.000,0.000,0.000,0.000,0.119,-0.345,-0.771,0,72,72,72,72
18.686,1783028612.674,ARMED,move r+0.00 p+0.00 g+0.00 y+0.00,1.00,0.00,-1.00,0.000,0.000,0.000,0.000,0.000,0.000,0.000,0.000,0.119,-0.345,-0.771,0,72,72,72,72
18.719,1783028612.707,ARMED,move r+0.00 p+0.00 g+0.00 y+0.00,1.00,0.00,-1.00,0.000,0.000,0.000,0.000,0.000,0.000,0.000,0.000,0.116,-0.333,-0.772,0,72,72,72,72
18.753,1783028612.740,ARMED,move r+0.00 p+0.00 g+0.00 y+0.00,1.00,0.00,-1.00,0.000,0.000,0.000,0.000,0.000,0.000,0.000,0.000,0.116,-0.333,-0.772,0,72,72,72,72
18.788,1783028612.775,ARMED,move r+0.00 p+0.00 g+0.00 y+0.00,1.00,0.00,-1.00,0.000,0.000,0.000,0.000,0.000,0.000,0.000,0.000,0.113,-0.329,-0.77,0,72,72,72,72
18.821,1783028612.809,ARMED,move r+0.00 p+0.00 g+0.00 y+0.00,1.00,0.00,-1.00,0.000,0.000,0.000,0.000,0.000,0.000,0.000,0.000,0.113,-0.329,-0.77,0,72,72,72,72
18.855,1783028612.843,ARMED,move r+0.00 p+0.00 g+0.00 y+0.00,1.00,0.00,-1.00,0.000,0.000,0.000,0.000,0.000,0.000,0.000,0.000,0.114,-0.313,-0.771,0,72,72,72,72
18.889,1783028612.877,ARMED,move r+0.00 p+0.00 g+0.00 y+0.00,1.00,0.00,-1.00,0.000,0.000,0.000,0.000,0.000,0.000,0.000,0.000,0.114,-0.313,-0.771,0,72,72,72,72
18.923,1783028612.911,ARMED,move r+0.00 p+0.00 g+0.00 y+0.00,1.00,0.00,-1.00,0.000,0.000,0.000,0.000,0.000,0.000,0.000,0.000,0.113,-0.302,-0.769,0,72,72,72,72
18.957,1783028612.944,ARMED,move r+0.00 p+0.00 g+0.00 y+0.00,1.00,0.00,-1.00,0.000,0.000,0.000,0.000,0.000,0.000,0.000,0.000,0.112,-0.29,-0.772,0,72,72,72,72
18.991,1783028612.978,ARMED,move r+0.00 p+0.00 g+0.00 y+0.00,1.00,0.00,-1.00,0.000,0.000,0.000,0.000,0.000,0.000,0.000,0.000,0.112,-0.29,-0.772,0,72,72,72,72
19.025,1783028613.013,ARMED,move r+0.00 p+0.00 g+0.00 y+0.00,1.00,0.00,-1.00,0.000,0.000,0.000,0.000,0.000,0.000,0.000,0.000,0.118,-0.282,-0.772,0,72,72,72,72
19.059,1783028613.046,ARMED,move r+0.00 p+0.00 g+0.00 y+0.00,1.00,0.00,-1.00,0.000,0.000,0.000,0.000,0.000,0.000,0.000,0.000,0.118,-0.282,-0.772,0,72,72,72,72
19.093,1783028613.081,ARMED,move r+0.00 p+0.00 g+0.00 y+0.00,1.00,0.00,-1.00,0.000,0.000,0.000,0.000,0.000,0.000,0.000,0.000,0.116,-0.279,-0.772,0,76,76,75,75
19.127,1783028613.114,ARMED,move r+0.00 p+0.00 g+0.00 y+0.00,1.00,0.00,-1.00,0.000,0.000,0.000,0.000,0.000,0.000,0.000,0.000,0.116,-0.279,-0.772,0,76,76,75,75
19.161,1783028613.149,ARMED,move r+0.00 p+0.00 g+0.00 y+0.00,1.00,0.00,-1.00,0.000,0.000,0.000,0.000,0.000,0.000,0.000,0.000,0.111,-0.262,-0.769,0,80,80,79,79
19.195,1783028613.182,ARMED,move r+0.00 p+0.00 g+0.00 y+0.00,1.00,0.00,-1.00,0.000,0.000,0.000,0.000,0.000,0.000,0.000,0.000,0.111,-0.262,-0.769,0,80,80,79,79
19.229,1783028613.216,ARMED,move r+0.00 p+0.00 g+0.00 y+0.00,1.00,0.00,-1.00,0.000,0.000,0.000,0.000,0.000,0.000,0.000,0.000,0.1,-0.253,-0.768,0,84,84,83,83
19.263,1783028613.251,ARMED,move r+0.00 p+0.00 g+0.00 y+0.00,1.00,0.00,-1.00,0.000,0.000,0.000,0.000,0.000,0.000,0.000,0.000,0.1,-0.253,-0.768,0,84,84,83,83
