t,wall,state,action,arm,b,emerg,raw_thr,raw_roll,raw_pitch,raw_yaw,sent_roll,sent_pitch,sent_gaz,sent_yaw,roll_deg,pitch_deg,yaw_deg,alt_mm,m1,m2,m3,m4
1.227,1783037950.824,DISARMED,idle,-1.00,0.00,-1.00,0.000,0.000,0.000,0.000,,,,,,,,,,,,
1.231,1783037950.829,DISARMED,idle,-1.00,0.00,-1.00,0.000,0.000,0.000,0.000,,,,,,,,,,,,
1.265,1783037950.862,DISARMED,idle,-1.00,0.00,-1.00,0.000,0.000,0.000,0.000,,,,,0.182,0.313,0.592,0,0,0,0,0
1.300,1783037950.897,DISARMED,idle,-1.00,0.00,-1.00,0.000,0.000,0.000,0.000,,,,,0.182,0.313,0.592,0,0,0,0,0
1.343,1783037950.940,DISARMED,idle,-1.00,0.00,-1.00,0.000,0.000,0.000,0.000,,,,,0.181,0.314,0.592,0,0,0,0,0
1.368,1783037950.965,DISARMED,idle,-1.00,0.00,-1.00,0.000,0.000,0.000,0.000,,,,,0.181,0.314,0.592,0,0,0,0,0
1.402,1783037950.999,DISARMED,idle,-1.00,0.00,-1.00,0.000,0.000,0.000,0.000,,,,,0.188,0.313,0.592,0,0,0,0,0
1.436,1783037951.033,DISARMED,idle,-1.00,0.00,-1.00,0.000,0.000,0.000,0.000,,,,,0.188,0.313,0.592,0,0,0,0,0
1.469,1783037951.066,DISARMED,idle,-1.00,0.00,-1.00,0.000,0.000,0.000,0.000,,,,,0.185,0.318,0.592,0,0,0,0,0
1.503,1783037951.100,DISARMED,idle,-1.00,0.00,-1.00,0.000,0.000,0.000,0.000,,,,,0.185,0.318,0.592,0,0,0,0,0
1.536,1783037951.133,DISARMED,idle,-1.00,0.00,-1.00,0.000,0.000,0.000,0.000,,,,,0.182,0.322,0.596,0,0,0,0,0
1.570,1783037951.167,DISARMED,idle,-1.00,0.00,-1.00,0.000,0.000,0.000,0.000,,,,,0.182,0.322,0.596,0,0,0,0,0
1.605,1783037951.202,DISARMED,idle,-1.00,0.00,-1.00,0.000,0.000,0.000,0.000,,,,,0.181,0.323,0.599,0,0,0,0,0
1.639,1783037951.236,DISARMED,idle,-1.00,0.00,-1.00,0.000,0.000,0.000,0.000,,,,,0.178,0.325,0.601,0,0,0,0,0
1.673,1783037951.270,DISARMED,idle,-1.00,0.00,-1.00,0.000,0.000,0.000,0.000,,,,,0.178,0.325,0.601,0,0,0,0,0
1.707,1783037951.304,DISARMED,idle,-1.00,0.00,-1.00,0.000,0.000,0.000,0.000,,,,,0.174,0.33,0.603,0,0,0,0,0
1.741,1783037951.338,DISARMED,idle,-1.00,0.00,-1.00,0.000,0.000,0.000,0.000,,,,,0.174,0.33,0.603,0,0,0,0,0
1.774,1783037951.372,DISARMED,idle,-1.00,0.00,-1.00,0.000,0.000,0.000,0.000,,,,,0.17,0.334,0.606,0,0,0,0,0
1.809,1783037951.406,DISARMED,idle,-1.00,0.00,-1.00,0.000,0.000,0.000,0.000,,,,,0.17,0.334,0.606,0,0,0,0,0
1.842,1783037951.439,DISARMED,idle,-1.00,0.00,-1.00,0.000,0.000,0.000,0.000,,,,,0.167,0.337,0.606,0,0,0,0,0
1.876,1783037951.473,DISARMED,idle,-1.00,0.00,-1.00,0.000,0.000,0.000,0.000,,,,,0.167,0.337,0.606,0,0,0,0,0
1.911,1783037951.508,DISARMED,idle,-1.00,0.00,-1.00,0.000,0.000,0.000,0.000,,,,,0.162,0.341,0.607,0,0,0,0,0
1.945,1783037951.542,DISARMED,idle,-1.00,0.00,-1.00,0.000,0.000,0.000,0.000,,,,,0.162,0.341,0.607,0,0,0,0,0
1.978,1783037951.575,DISARMED,idle,-1.00,0.00,-1.00,0.000,0.000,0.000,0.000,,,,,0.158,0.347,0.608,0,0,0,0,0
2.013,1783037951.610,DISARMED,idle,-1.00,0.00,-1.00,0.000,0.000,0.000,0.000,,,,,0.158,0.347,0.608,0,0,0,0,0
2.047,1783037951.644,DISARMED,idle,-1.00,0.00,-1.00,0.000,0.000,0.000,0.000,,,,,0.156,0.352,0.61,0,0,0,0,0
2.080,1783037951.677,DISARMED,idle,-1.00,0.00,-1.00,0.000,0.000,0.000,0.000,,,,,0.156,0.352,0.61,0,0,0,0,0
2.114,1783037951.711,DISARMED,idle,-1.00,0.00,-1.00,0.000,0.000,0.000,0.000,,,,,0.154,0.356,0.611,0,0,0,0,0
2.148,1783037951.745,DISARMED,idle,-1.00,0.00,-1.00,0.000,0.000,0.000,0.000,,,,,0.154,0.356,0.611,0,0,0,0,0
2.182,1783037951.780,DISARMED,idle,-1.00,0.00,-1.00,0.000,0.000,0.000,0.000,,,,,0.153,0.36,0.613,0,0,0,0,0
2.216,1783037951.813,DISARMED,idle,-1.00,0.00,-1.00,0.000,0.000,0.000,0.000,,,,,0.153,0.36,0.613,0,0,0,0,0
2.251,1783037951.848,DISARMED,idle,-1.00,0.00,-1.00,0.000,0.000,0.000,0.000,,,,,0.154,0.349,0.616,0,0,0,0,0
2.284,1783037951.881,DISARMED,idle,-1.00,0.00,-1.00,0.000,0.000,0.000,0.000,,,,,0.154,0.349,0.616,0,0,0,0,0
2.318,1783037951.915,DISARMED,idle,-1.00,0.00,-1.00,0.000,0.000,0.000,0.000,,,,,0.152,0.348,0.619,0,0,0,0,0
2.352,1783037951.950,DISARMED,idle,-1.00,0.00,-1.00,0.000,0.000,0.000,0.000,,,,,0.148,0.345,0.621,0,0,0,0,0
2.386,1783037951.983,DISARMED,idle,-1.00,0.00,-1.00,0.000,0.000,0.000,0.000,,,,,0.148,0.345,0.621,0,0,0,0,0
2.420,1783037952.018,DISARMED,idle,-1.00,0.00,-1.00,0.000,0.000,0.000,0.000,,,,,0.147,0.349,0.621,0,0,0,0,0
2.454,1783037952.051,DISARMED,idle,-1.00,0.00,-1.00,0.000,0.000,0.000,0.000,,,,,0.147,0.349,0.621,0,0,0,0,0
2.488,1783037952.085,DISARMED,idle,-1.00,0.00,-1.00,0.000,0.000,0.000,0.000,,,,,0.144,0.357,0.622,0,0,0,0,0
2.522,1783037952.119,DISARMED,idle,-1.00,0.00,-1.00,0.000,0.000,0.000,0.000,,,,,0.144,0.357,0.622,0,0,0,0,0
2.557,1783037952.154,DISARMED,idle,-1.00,0.00,-1.00,0.000,0.000,0.000,0.000,,,,,0.146,0.362,0.626,0,0,0,0,0
2.591,1783037952.188,DISARMED,idle,-1.00,0.00,-1.00,0.000,0.000,0.000,0.000,,,,,0.146,0.362,0.626,0,0,0,0,0
2.624,1783037952.221,DISARMED,idle,-1.00,0.00,-1.00,0.000,0.000,0.000,0.000,,,,,0.145,0.363,0.629,0,0,0,0,0
2.659,1783037952.256,DISARMED,idle,-1.00,0.00,-1.00,0.000,0.000,0.000,0.000,,,,,0.145,0.363,0.629,0,0,0,0,0
2.693,1783037952.290,DISARMED,idle,-1.00,0.00,-1.00,0.000,0.000,0.000,0.000,,,,,0.143,0.358,0.63,0,0,0,0,0
2.726,1783037952.323,DISARMED,idle,-1.00,0.00,-1.00,0.000,0.000,0.000,0.000,,,,,0.143,0.358,0.63,0,0,0,0,0
2.760,1783037952.358,DISARMED,idle,-1.00,0.00,-1.00,0.000,0.000,0.000,0.000,,,,,0.142,0.356,0.633,0,0,0,0,0
2.795,1783037952.392,DISARMED,idle,-1.00,0.00,-1.00,0.000,0.000,0.000,0.000,,,,,0.142,0.356,0.633,0,0,0,0,0
2.829,1783037952.426,DISARMED,idle,-1.00,0.00,-1.00,0.000,0.000,0.000,0.000,,,,,0.141,0.361,0.634,0,0,0,0,0
2.863,1783037952.460,DISARMED,idle,-1.00,0.00,-1.00,0.000,0.000,0.000,0.000,,,,,0.141,0.361,0.634,0,0,0,0,0
2.897,1783037952.494,DISARMED,idle,-1.00,0.00,-1.00,0.000,0.000,0.000,0.000,,,,,0.14,0.357,0.636,0,0,0,0,0
2.931,1783037952.528,DISARMED,idle,-1.00,0.00,-1.00,0.000,0.000,0.000,0.000,,,,,0.14,0.357,0.636,0,0,0,0,0
2.969,1783037952.566,DISARMED,idle,-1.00,0.00,-1.00,0.000,0.000,0.000,0.000,,,,,0.138,0.359,0.637,0,0,0,0,0
2.999,1783037952.596,DISARMED,idle,-1.00,0.00,-1.00,0.000,0.000,0.000,0.000,,,,,0.138,0.359,0.637,0,0,0,0,0
3.033,1783037952.630,DISARMED,idle,-1.00,0.00,-1.00,0.000,0.000,0.000,0.000,,,,,0.137,0.363,0.638,0,0,0,0,0
3.070,1783037952.667,DISARMED,idle,-1.00,0.00,-1.00,0.000,0.000,0.000,0.000,,,,,0.135,0.368,0.64,0,0,0,0,0
3.102,1783037952.699,DISARMED,idle,-1.00,0.00,-1.00,0.000,0.000,0.000,0.000,,,,,0.135,0.368,0.64,0,0,0,0,0
3.136,1783037952.733,DISARMED,idle,-1.00,0.00,-1.00,0.000,0.000,0.000,0.000,,,,,0.143,0.369,0.641,0,0,0,0,0
3.169,1783037952.766,DISARMED,idle,-1.00,0.00,-1.00,0.000,0.000,0.000,0.000,,,,,0.143,0.369,0.641,0,0,0,0,0
3.203,1783037952.800,DISARMED,idle,-1.00,0.00,-1.00,0.000,0.000,0.000,0.000,,,,,0.145,0.359,0.644,0,0,0,0,0
3.237,1783037952.834,DISARMED,idle,-1.00,0.00,-1.00,0.000,0.000,0.000,0.000,,,,,0.145,0.359,0.644,0,0,0,0,0
3.271,1783037952.868,DISARMED,idle,-1.00,0.00,-1.00,0.000,0.000,0.000,0.000,,,,,0.147,0.362,0.645,0,0,0,0,0
3.305,1783037952.902,DISARMED,idle,-1.00,0.00,-1.00,0.000,0.000,0.000,0.000,,,,,0.147,0.362,0.645,0,0,0,0,0
3.339,1783037952.936,DISARMED,idle,-1.00,0.00,-1.00,0.000,0.000,0.000,0.000,,,,,0.145,0.361,0.647,0,0,0,0,0
3.372,1783037952.969,DISARMED,idle,-1.00,0.00,-1.00,0.000,0.000,0.000,0.000,,,,,0.145,0.361,0.647,0,0,0,0,0
3.407,1783037953.004,DISARMED,idle,-1.00,0.00,-1.00,0.000,0.000,0.000,0.000,,,,,0.144,0.357,0.649,0,0,0,0,0
3.440,1783037953.037,DISARMED,idle,-1.00,0.00,-1.00,0.000,0.000,0.000,0.000,,,,,0.144,0.357,0.649,0,0,0,0,0
3.475,1783037953.072,DISARMED,idle,-1.00,0.00,-1.00,0.000,0.000,0.000,0.000,,,,,0.144,0.35,0.65,0,0,0,0,0
3.509,1783037953.106,DISARMED,idle,-1.00,0.00,-1.00,0.000,0.000,0.000,0.000,,,,,0.144,0.35,0.65,0,0,0,0,0
3.543,1783037953.140,DISARMED,idle,-1.00,0.00,-1.00,0.000,0.000,0.000,0.000,,,,,0.144,0.354,0.651,0,0,0,0,0
3.577,1783037953.174,DISARMED,idle,-1.00,0.00,-1.00,0.000,0.000,0.000,0.000,,,,,0.144,0.354,0.651,0,0,0,0,0
3.610,1783037953.207,DISARMED,idle,-1.00,0.00,-1.00,0.000,0.000,0.000,0.000,,,,,0.14,0.347,0.65,0,0,0,0,0
3.644,1783037953.242,DISARMED,idle,-1.00,0.00,-1.00,0.000,0.000,0.000,0.000,,,,,0.14,0.347,0.65,0,0,0,0,0
3.679,1783037953.276,DISARMED,idle,-1.00,0.00,-1.00,0.000,0.000,0.000,0.000,,,,,0.139,0.351,0.652,0,0,0,0,0
3.713,1783037953.310,DISARMED,idle,-1.00,0.00,-1.00,0.000,0.000,0.000,0.000,,,,,0.139,0.351,0.652,0,0,0,0,0
3.746,1783037953.343,DISARMED,idle,-1.00,0.00,-1.00,0.000,0.000,0.000,0.000,,,,,0.138,0.357,0.654,0,0,0,0,0
3.780,1783037953.377,DISARMED,idle,-1.00,0.00,-1.00,0.000,0.000,0.000,0.000,,,,,0.138,0.357,0.654,0,0,0,0,0
3.814,1783037953.411,DISARMED,idle,-1.00,0.00,-1.00,0.000,0.000,0.000,0.000,,,,,0.144,0.363,0.657,0,0,0,0,0
3.848,1783037953.445,DISARMED,idle,-1.00,0.00,-1.00,0.000,0.000,0.000,0.000,,,,,0.144,0.363,0.657,0,0,0,0,0
3.881,1783037953.478,DISARMED,idle,-1.00,0.00,-1.00,0.000,0.000,0.000,0.000,,,,,0.141,0.366,0.657,0,0,0,0,0
3.916,1783037953.513,DISARMED,idle,-1.00,0.00,-1.00,0.000,0.000,0.000,0.000,,,,,0.143,0.37,0.66,0,0,0,0,0
3.950,1783037953.547,DISARMED,idle,-1.00,0.00,-1.00,0.000,0.000,0.000,0.000,,,,,0.143,0.37,0.66,0,0,0,0,0
3.984,1783037953.581,DISARMED,idle,-1.00,0.00,-1.00,0.000,0.000,0.000,0.000,,,,,0.147,0.365,0.661,0,0,0,0,0
4.018,1783037953.615,DISARMED,idle,-1.00,0.00,-1.00,0.000,0.000,0.000,0.000,,,,,0.147,0.365,0.661,0,0,0,0,0
4.052,1783037953.649,DISARMED,idle,-1.00,0.00,-1.00,0.000,0.000,0.000,0.000,,,,,0.147,0.371,0.664,0,0,0,0,0
4.085,1783037953.682,DISARMED,idle,-1.00,0.00,-1.00,0.000,0.000,0.000,0.000,,,,,0.147,0.371,0.664,0,0,0,0,0
4.119,1783037953.716,DISARMED,idle,-1.00,0.00,-1.00,0.000,0.000,0.000,0.000,,,,,0.148,0.376,0.665,0,0,0,0,0
4.153,1783037953.750,DISARMED,idle,-1.00,0.00,-1.00,0.000,0.000,0.000,0.000,,,,,0.148,0.376,0.665,0,0,0,0,0
4.187,1783037953.784,DISARMED,idle,-1.00,0.00,-1.00,0.000,0.000,0.000,0.000,,,,,0.148,0.381,0.666,0,0,0,0,0
4.221,1783037953.818,DISARMED,idle,-1.00,0.00,-1.00,0.000,0.000,0.000,0.000,,,,,0.148,0.381,0.666,0,0,0,0,0
4.255,1783037953.852,DISARMED,idle,-1.00,0.00,-1.00,0.000,0.000,0.000,0.000,,,,,0.149,0.38,0.67,0,0,0,0,0
4.288,1783037953.885,DISARMED,idle,-1.00,0.00,-1.00,0.000,0.000,0.000,0.000,,,,,0.149,0.38,0.67,0,0,0,0,0
4.322,1783037953.919,DISARMED,idle,-1.00,0.00,-1.00,0.000,0.000,0.000,0.000,,,,,0.156,0.374,0.671,0,0,0,0,0
4.356,1783037953.953,DISARMED,idle,-1.00,0.00,-1.00,0.000,0.000,0.000,0.000,,,,,0.156,0.374,0.671,0,0,0,0,0
4.390,1783037953.987,DISARMED,idle,-1.00,0.00,-1.00,0.000,0.000,0.000,0.000,,,,,0.17,0.362,0.674,0,0,0,0,0
4.424,1783037954.021,DISARMED,idle,-1.00,0.00,-1.00,0.000,0.000,0.000,0.000,,,,,0.17,0.362,0.674,0,0,0,0,0
4.458,1783037954.055,DISARMED,idle,-1.00,0.00,-1.00,0.000,0.000,0.000,0.000,,,,,0.173,0.364,0.678,0,0,0,0,0
4.493,1783037954.090,DISARMED,idle,-1.00,0.00,-1.00,0.000,0.000,0.000,0.000,,,,,0.173,0.364,0.678,0,0,0,0,0
4.527,1783037954.124,DISARMED,idle,-1.00,0.00,-1.00,0.000,0.000,0.000,0.000,,,,,0.173,0.364,0.678,0,0,0,0,0
4.561,1783037954.158,DISARMED,idle,-1.00,0.00,-1.00,0.000,0.000,0.000,0.000,,,,,0.174,0.365,0.681,0,0,0,0,0
4.595,1783037954.192,DISARMED,idle,-1.00,0.00,-1.00,0.000,0.000,0.000,0.000,,,,,0.188,0.363,0.681,0,0,0,0,0
4.629,1783037954.226,DISARMED,idle,-1.00,0.00,-1.00,0.000,0.000,0.000,0.000,,,,,0.188,0.363,0.681,0,0,0,0,0
4.664,1783037954.261,DISARMED,idle,-1.00,0.00,-1.00,0.000,0.000,0.000,0.000,,,,,0.195,0.361,0.681,0,0,0,0,0
4.698,1783037954.295,DISARMED,idle,-1.00,0.00,-1.00,0.000,0.000,0.000,0.000,,,,,0.195,0.361,0.681,0,0,0,0,0
4.731,1783037954.328,DISARMED,idle,-1.00,0.00,-1.00,0.000,0.000,0.000,0.000,,,,,0.195,0.361,0.681,0,0,0,0,0
4.766,1783037954.363,DISARMED,idle,-1.00,0.00,-1.00,0.000,0.000,0.000,0.000,,,,,0.205,0.364,0.683,0,0,0,0,0
4.799,1783037954.396,DISARMED,idle,-1.00,0.00,-1.00,0.000,0.000,0.000,0.000,,,,,0.21,0.367,0.685,0,0,0,0,0
4.833,1783037954.430,DISARMED,idle,-1.00,0.00,-1.00,0.000,0.000,0.000,0.000,,,,,0.21,0.367,0.685,0,0,0,0,0
4.867,1783037954.464,DISARMED,idle,-1.00,0.00,-1.00,0.000,0.000,0.000,0.000,,,,,0.209,0.37,0.687,0,0,0,0,0
4.901,1783037954.498,DISARMED,idle,-1.00,0.00,-1.00,0.000,0.000,0.000,0.000,,,,,0.209,0.37,0.687,0,0,0,0,0
4.934,1783037954.532,DISARMED,idle,-1.00,0.00,-1.00,0.000,0.000,0.000,0.000,,,,,0.216,0.363,0.689,0,0,0,0,0
4.968,1783037954.565,DISARMED,idle,-1.00,0.00,-1.00,0.000,0.000,0.000,0.000,,,,,0.217,0.361,0.689,0,0,0,0,0
5.002,1783037954.599,DISARMED,idle,-1.00,0.00,-1.00,0.000,0.000,0.000,0.000,,,,,0.217,0.361,0.689,0,0,0,0,0
5.036,1783037954.633,DISARMED,idle,-1.00,0.00,-1.00,0.000,0.000,0.000,0.000,,,,,0.225,0.359,0.691,0,0,0,0,0
5.070,1783037954.667,DISARMED,idle,-1.00,0.00,-1.00,0.000,0.000,0.000,0.000,,,,,0.225,0.359,0.691,0,0,0,0,0
5.104,1783037954.701,DISARMED,idle,-1.00,0.00,-1.00,0.000,0.000,0.000,0.000,,,,,0.237,0.351,0.694,0,0,0,0,0
5.138,1783037954.735,DISARMED,idle,-1.00,0.00,-1.00,0.000,0.000,0.000,0.000,,,,,0.237,0.351,0.694,0,0,0,0,0
5.172,1783037954.769,DISARMED,idle,-1.00,0.00,-1.00,0.000,0.000,0.000,0.000,,,,,0.246,0.355,0.696,0,0,0,0,0
5.207,1783037954.804,DISARMED,idle,-1.00,0.00,-1.00,0.000,0.000,0.000,0.000,,,,,0.246,0.355,0.696,0,0,0,0,0
5.242,1783037954.839,DISARMED,idle,-1.00,0.00,-1.00,0.000,0.000,0.000,0.000,,,,,0.246,0.352,0.699,0,0,0,0,0
5.274,1783037954.871,DISARMED,idle,-1.00,0.00,-1.00,0.000,0.000,0.000,0.000,,,,,0.246,0.352,0.699,0,0,0,0,0
5.308,1783037954.905,DISARMED,idle,-1.00,0.00,-1.00,0.000,0.000,0.000,0.000,,,,,0.255,0.346,0.701,0,0,0,0,0
5.343,1783037954.940,DISARMED,idle,-1.00,0.00,-1.00,0.000,0.000,0.000,0.000,,,,,0.255,0.346,0.701,0,0,0,0,0
5.376,1783037954.973,DISARMED,idle,-1.00,0.00,-1.00,0.000,0.000,0.000,0.000,,,,,0.254,0.335,0.702,0,0,0,0,0
5.410,1783037955.007,DISARMED,idle,-1.00,0.00,-1.00,0.000,0.000,0.000,0.000,,,,,0.254,0.335,0.702,0,0,0,0,0
5.443,1783037955.040,DISARMED,idle,-1.00,0.00,-1.00,0.000,0.000,0.000,0.000,,,,,0.254,0.335,0.702,0,0,0,0,0
5.477,1783037955.074,DISARMED,idle,-1.00,0.00,-1.00,0.000,0.000,0.000,0.000,,,,,0.254,0.335,0.702,0,0,0,0,0
5.512,1783037955.109,DISARMED,idle,-1.00,0.00,-1.00,0.000,0.000,0.000,0.000,,,,,0.265,0.312,0.706,0,0,0,0,0
5.545,1783037955.143,DISARMED,idle,-1.00,0.00,-1.00,0.000,0.000,0.000,0.000,,,,,0.265,0.312,0.706,0,0,0,0,0
5.579,1783037955.177,DISARMED,idle,-1.00,0.00,-1.00,0.000,0.000,0.000,0.000,,,,,0.275,0.308,0.706,0,0,0,0,0
5.613,1783037955.210,DISARMED,idle,-1.00,0.00,-1.00,0.000,0.000,0.000,0.000,,,,,0.275,0.308,0.706,0,0,0,0,0
5.647,1783037955.244,DISARMED,idle,-1.00,0.00,-1.00,0.000,0.000,0.000,0.000,,,,,0.287,0.297,0.709,0,0,0,0,0
5.681,1783037955.278,DISARMED,idle,-1.00,0.00,-1.00,0.000,0.000,0.000,0.000,,,,,0.287,0.297,0.709,0,0,0,0,0
5.716,1783037955.313,DISARMED,idle,-1.00,0.00,-1.00,0.000,0.000,0.000,0.000,,,,,0.287,0.297,0.709,0,0,0,0,0
5.750,1783037955.347,DISARMED,idle,-1.00,0.00,-1.00,0.000,0.000,0.000,0.000,,,,,0.304,0.277,0.714,0,0,0,0,0
5.783,1783037955.380,DISARMED,idle,-1.00,0.00,-1.00,0.000,0.000,0.000,0.000,,,,,0.304,0.277,0.714,0,0,0,0,0
5.816,1783037955.413,DISARMED,idle,-1.00,0.00,-1.00,0.000,0.000,0.000,0.000,,,,,0.311,0.28,0.716,0,0,0,0,0
5.851,1783037955.448,DISARMED,idle,-1.00,0.00,-1.00,0.000,0.000,0.000,0.000,,,,,0.311,0.28,0.716,0,0,0,0,0
5.885,1783037955.482,DISARMED,idle,-1.00,0.00,-1.00,0.000,0.000,0.000,0.000,,,,,0.309,0.288,0.717,0,0,0,0,0
5.918,1783037955.515,DISARMED,idle,-1.00,0.00,-1.00,0.000,0.000,0.000,0.000,,,,,0.309,0.288,0.717,0,0,0,0,0
5.952,1783037955.549,DISARMED,idle,-1.00,0.00,-1.00,0.000,0.000,0.000,0.000,,,,,0.3,0.297,0.718,0,0,0,0,0
5.986,1783037955.583,DISARMED,idle,-1.00,0.00,-1.00,0.000,0.000,0.000,0.000,,,,,0.3,0.297,0.718,0,0,0,0,0
6.019,1783037955.616,DISARMED,idle,-1.00,0.00,-1.00,0.000,0.000,0.000,0.000,,,,,0.303,0.303,0.719,0,0,0,0,0
6.053,1783037955.651,DISARMED,idle,-1.00,0.00,-1.00,0.000,0.000,0.000,0.000,,,,,0.303,0.303,0.719,0,0,0,0,0
6.106,1783037955.703,ARMED,move r+0.00 p+0.00 g+0.00 y+0.00,1.00,0.00,-1.00,0.000,0.000,0.000,0.000,0.000,0.000,0.000,0.000,0.294,0.307,0.72,0,0,0,0,0
6.121,1783037955.718,ARMED,move r+0.00 p+0.00 g+0.00 y+0.00,1.00,0.00,-1.00,0.000,0.000,0.000,0.000,0.000,0.000,0.000,0.000,0.294,0.307,0.72,0,0,0,0,0
6.156,1783037955.753,ARMED,move r+0.00 p+0.00 g+0.00 y+0.00,1.00,0.00,-1.00,0.000,0.000,0.000,0.000,0.000,0.000,0.000,0.000,-0.002,0.0,0.726,0,0,0,0,0
6.190,1783037955.787,ARMED,move r+0.00 p+0.00 g+0.00 y+0.00,1.00,0.00,-1.00,0.000,0.000,0.000,0.000,0.000,0.000,0.000,0.000,-0.002,0.0,0.726,0,0,0,0,0
6.223,1783037955.821,ARMED,move r+0.00 p+0.00 g+0.00 y+0.00,1.00,0.00,-1.00,0.000,0.000,0.000,0.000,0.000,0.000,0.000,0.000,-0.007,0.001,0.728,0,0,0,0,0
6.258,1783037955.855,ARMED,move r+0.00 p+0.00 g+0.00 y+0.00,1.00,0.00,-1.00,0.000,0.000,0.000,0.000,0.000,0.000,0.000,0.000,-0.017,0.0,0.731,0,0,0,0,0
6.292,1783037955.889,ARMED,move r+0.00 p+0.00 g+0.00 y+0.00,1.00,0.00,-1.00,0.000,0.000,0.000,0.000,0.000,0.000,0.000,0.000,-0.017,0.0,0.731,0,0,0,0,0
6.325,1783037955.922,ARMED,move r+0.00 p+0.00 g+0.00 y+0.00,1.00,0.00,-1.00,0.000,0.000,0.000,0.000,0.000,0.000,0.000,0.000,-0.026,-0.001,0.732,0,0,0,0,0
6.358,1783037955.955,ARMED,move r+0.00 p+0.00 g+0.00 y+0.00,1.00,0.00,-1.00,0.000,0.000,0.000,0.000,0.000,0.000,0.000,0.000,-0.026,-0.001,0.732,0,0,0,0,0
6.392,1783037955.989,ARMED,move r+0.00 p+0.00 g+0.00 y+0.00,1.00,0.00,-1.00,0.000,0.000,0.000,0.000,0.000,0.000,0.000,0.000,-0.033,-0.008,0.73,0,0,0,0,0
6.426,1783037956.023,ARMED,move r+0.00 p+0.00 g+0.00 y+0.00,1.00,0.00,-1.00,0.000,0.000,0.000,0.000,0.000,0.000,0.000,0.000,-0.033,-0.008,0.73,0,0,0,0,0
6.461,1783037956.058,ARMED,move r+0.00 p+0.00 g+0.00 y+0.00,1.00,0.00,-1.00,0.000,0.000,0.000,0.000,0.000,0.000,0.000,0.000,-0.039,-0.024,0.734,0,0,0,0,0
6.494,1783037956.091,ARMED,move r+0.00 p+0.00 g+0.00 y+0.00,1.00,0.00,-1.00,0.000,0.000,0.000,0.000,0.000,0.000,0.000,0.000,-0.039,-0.024,0.734,0,0,0,0,0
6.529,1783037956.126,ARMED,move r+0.00 p+0.00 g+0.00 y+0.00,1.00,0.00,-1.00,0.000,0.000,0.000,0.000,0.000,0.000,0.000,0.000,-0.044,-0.023,0.736,0,0,0,0,0
6.564,1783037956.161,ARMED,move r+0.00 p+0.00 g+0.00 y+0.00,1.00,0.00,-1.00,0.000,0.000,0.000,0.000,0.000,0.000,0.000,0.000,-0.044,-0.023,0.736,0,0,0,0,0
6.598,1783037956.195,ARMED,move r+0.00 p+0.00 g+0.00 y+0.00,1.00,0.00,-1.00,0.000,0.000,0.000,0.000,0.000,0.000,0.000,0.000,-0.048,-0.034,0.739,0,0,0,0,0
6.632,1783037956.229,ARMED,move r+0.00 p+0.00 g+0.00 y+0.00,1.00,0.00,-1.00,0.000,0.000,0.000,0.000,0.000,0.000,0.000,0.000,-0.048,-0.034,0.739,0,0,0,0,0
6.665,1783037956.262,ARMED,move r+0.00 p+0.00 g+0.00 y+0.00,1.00,0.00,-1.00,0.000,0.000,0.000,0.000,0.000,0.000,0.000,0.000,-0.051,-0.042,0.74,0,0,0,0,0
6.700,1783037956.297,ARMED,move r+0.00 p+0.00 g+0.00 y+0.00,1.00,0.00,-1.00,0.000,0.000,0.000,0.000,0.000,0.000,0.000,0.000,-0.051,-0.042,0.74,0,0,0,0,0
6.734,1783037956.331,ARMED,move r+0.00 p+0.00 g+0.00 y+0.00,1.00,0.00,-1.00,0.000,0.000,0.000,0.000,0.000,0.000,0.000,0.000,-0.058,-0.047,0.741,0,0,0,0,0
6.768,1783037956.365,ARMED,move r+0.00 p+0.00 g+0.00 y+0.00,1.00,0.00,-1.00,0.000,0.000,0.000,0.000,0.000,0.000,0.000,0.000,-0.058,-0.047,0.741,0,0,0,0,0
6.802,1783037956.399,ARMED,move r+0.00 p+0.00 g+0.00 y+0.00,1.00,0.00,-1.00,0.000,0.000,0.000,0.000,0.000,0.000,0.000,0.000,-0.064,-0.046,0.744,0,0,0,0,0
6.836,1783037956.433,ARMED,move r+0.00 p+0.00 g+0.00 y+0.00,1.00,0.00,-1.00,0.000,0.000,0.000,0.000,0.000,0.000,0.000,0.000,-0.064,-0.046,0.744,0,0,0,0,0
6.870,1783037956.467,ARMED,move r+0.00 p+0.00 g+0.00 y+0.00,1.00,0.00,-1.00,0.000,0.000,0.000,0.000,0.000,0.000,0.000,0.000,-0.07,-0.047,0.745,0,0,0,0,0
6.904,1783037956.501,ARMED,move r+0.00 p+0.00 g+0.00 y+0.00,1.00,0.00,-1.00,0.000,0.000,0.000,0.000,0.000,0.000,0.000,0.000,-0.07,-0.047,0.745,0,0,0,0,0
6.938,1783037956.535,ARMED,move r+0.00 p+0.00 g+0.00 y+0.00,1.00,0.00,-1.00,0.000,0.000,0.000,0.000,0.000,0.000,0.000,0.000,-0.077,-0.048,0.747,0,0,0,0,0
6.972,1783037956.569,ARMED,move r+0.00 p+0.00 g+0.00 y+0.00,1.00,0.00,-1.00,0.000,0.000,0.000,0.000,0.000,0.000,0.000,0.000,-0.077,-0.048,0.747,0,0,0,0,0
7.006,1783037956.603,ARMED,move r+0.00 p+0.00 g+0.00 y+0.00,1.00,0.00,-1.00,0.000,0.000,0.000,0.000,0.000,0.000,0.000,0.000,-0.085,-0.056,0.75,0,0,0,0,0
7.040,1783037956.637,ARMED,move r+0.00 p+0.00 g+0.00 y+0.00,1.00,0.00,-1.00,0.000,0.000,0.000,0.000,0.000,0.000,0.000,0.000,-0.089,-0.066,0.755,0,0,0,0,0
7.074,1783037956.671,ARMED,move r+0.00 p+0.00 g+0.00 y+0.00,1.00,0.00,-1.00,0.000,0.000,0.000,0.000,0.000,0.000,0.000,0.000,-0.089,-0.066,0.755,0,0,0,0,0
7.107,1783037956.704,ARMED,move r+0.00 p+0.00 g+0.00 y+0.00,1.00,0.00,-1.00,0.000,0.000,0.000,0.000,0.000,0.000,0.000,0.000,-0.096,-0.069,0.755,0,0,0,0,0
7.142,1783037956.739,ARMED,move r+0.00 p+0.00 g+0.00 y+0.00,1.00,0.00,-1.00,0.000,0.000,0.000,0.000,0.000,0.000,0.000,0.000,-0.096,-0.069,0.755,0,0,0,0,0
7.175,1783037956.772,ARMED,move r+0.00 p+0.00 g+0.00 y+0.00,1.00,0.00,-1.00,0.000,0.000,0.000,0.000,0.000,0.000,0.000,0.000,-0.11,-0.066,0.757,0,0,0,0,0
7.210,1783037956.807,ARMED,move r+0.00 p+0.00 g+0.00 y+0.00,1.00,0.00,-1.00,0.000,0.000,0.000,0.000,0.000,0.000,0.000,0.000,-0.11,-0.066,0.757,0,0,0,0,0
7.244,1783037956.841,ARMED,move r+0.00 p+0.00 g+0.00 y+0.00,1.00,0.00,-1.00,0.000,0.000,0.000,0.000,0.000,0.000,0.000,0.000,-0.121,-0.063,0.758,0,0,0,0,0
7.277,1783037956.875,ARMED,move r+0.00 p+0.00 g+0.00 y+0.00,1.00,0.00,-1.00,0.000,0.000,0.000,0.000,0.000,0.000,0.000,0.000,-0.121,-0.063,0.758,0,0,0,0,0
7.312,1783037956.909,ARMED,move r+0.00 p+0.00 g+0.00 y+0.00,1.00,0.00,-1.00,0.000,0.000,0.000,0.000,0.000,0.000,0.000,0.000,-0.125,-0.06,0.759,0,0,0,0,0
7.346,1783037956.943,ARMED,move r+0.00 p+0.00 g+0.00 y+0.00,1.00,0.00,-1.00,0.000,0.000,0.000,0.000,0.000,0.000,0.000,0.000,-0.125,-0.06,0.759,0,0,0,0,0
7.380,1783037956.977,ARMED,move r+0.00 p+0.00 g+0.00 y+0.00,1.00,0.00,-1.00,0.000,0.000,0.000,0.000,0.000,0.000,0.000,0.000,-0.131,-0.058,0.762,0,0,0,0,0
7.413,1783037957.010,ARMED,move r+0.00 p+0.00 g+0.00 y+0.00,1.00,0.00,-1.00,0.000,0.000,0.000,0.000,0.000,0.000,0.000,0.000,-0.131,-0.058,0.762,0,0,0,0,0
7.446,1783037957.044,ARMED,move r+0.00 p+0.00 g+0.00 y+0.00,1.00,0.00,-1.00,0.000,0.000,0.000,0.000,0.000,0.000,0.000,0.000,-0.135,-0.057,0.764,0,0,0,0,0
7.481,1783037957.078,ARMED,move r+0.00 p+0.00 g+0.00 y+0.00,1.00,0.00,-1.00,0.000,0.000,0.000,0.000,0.000,0.000,0.000,0.000,-0.135,-0.057,0.764,0,0,0,0,0
7.514,1783037957.111,ARMED,move r+0.00 p+0.00 g+0.00 y+0.00,1.00,0.00,-1.00,0.000,0.000,0.000,0.000,0.000,0.000,0.000,0.000,-0.128,-0.056,0.766,0,0,0,0,0
7.549,1783037957.146,ARMED,move r+0.00 p+0.00 g+0.00 y+0.00,1.00,0.00,-1.00,0.000,0.000,0.000,0.000,0.000,0.000,0.000,0.000,-0.128,-0.056,0.766,0,0,0,0,0
7.583,1783037957.180,ARMED,move r+0.00 p+0.00 g+0.00 y+0.00,1.00,0.00,-1.00,0.000,0.000,0.000,0.000,0.000,0.000,0.000,0.000,-0.132,-0.057,0.768,0,0,0,0,0
7.617,1783037957.214,ARMED,move r+0.00 p+0.00 g+0.00 y+0.00,1.00,0.00,-1.00,0.000,0.000,0.000,0.000,0.000,0.000,0.000,0.000,-0.132,-0.057,0.768,0,0,0,0,0
7.651,1783037957.248,ARMED,move r+0.00 p+0.00 g+0.00 y+0.00,1.00,0.00,-1.00,0.000,0.000,0.000,0.000,0.000,0.000,0.000,0.000,-0.134,-0.054,0.769,0,0,0,0,0
7.685,1783037957.282,ARMED,move r+0.00 p+0.00 g+0.00 y+0.00,1.00,0.00,-1.00,0.000,0.000,0.000,0.000,0.000,0.000,0.000,0.000,-0.134,-0.054,0.769,0,0,0,0,0
7.719,1783037957.316,ARMED,move r+0.00 p+0.00 g+0.00 y+0.00,1.00,0.00,-1.00,0.000,0.000,0.000,0.000,0.000,0.000,0.000,0.000,-0.133,-0.056,0.77,0,0,0,0,0
7.753,1783037957.350,ARMED,move r+0.00 p+0.00 g+0.00 y+0.00,1.00,0.00,-1.00,0.000,0.000,0.000,0.000,0.000,0.000,0.000,0.000,-0.133,-0.056,0.77,0,0,0,0,0
7.787,1783037957.384,ARMED,move r+0.00 p+0.00 g+0.00 y+0.00,1.00,0.00,-1.00,0.000,0.000,0.000,0.000,0.000,0.000,0.000,0.000,-0.127,-0.059,0.773,0,0,0,0,0
7.821,1783037957.418,ARMED,move r+0.00 p+0.00 g+0.00 y+0.00,1.00,0.00,-1.00,0.000,0.000,0.000,0.000,0.000,0.000,0.000,0.000,-0.133,-0.056,0.776,0,0,0,0,0
7.855,1783037957.452,ARMED,move r+0.00 p+0.00 g+0.00 y+0.00,1.00,0.00,-1.00,0.000,0.000,0.000,0.000,0.000,0.000,0.000,0.000,-0.133,-0.056,0.776,0,0,0,0,0
7.888,1783037957.485,ARMED,move r+0.00 p+0.00 g+0.00 y+0.00,1.00,0.00,-1.00,0.000,0.000,0.000,0.000,0.000,0.000,0.000,0.000,-0.138,-0.054,0.776,0,0,0,0,0
7.922,1783037957.519,ARMED,move r+0.00 p+0.00 g+0.00 y+0.00,1.00,0.00,-1.00,0.000,0.000,0.000,0.000,0.000,0.000,0.000,0.000,-0.138,-0.054,0.776,0,0,0,0,0
7.956,1783037957.553,ARMED,move r+0.00 p+0.00 g+0.00 y+0.00,1.00,0.00,-1.00,0.000,0.000,0.000,0.000,0.000,0.000,0.000,0.000,-0.139,-0.059,0.779,0,0,0,0,0
7.991,1783037957.588,ARMED,move r+0.00 p+0.00 g+0.00 y+0.00,1.00,0.00,-1.00,0.000,0.000,0.000,0.000,0.000,0.000,0.000,0.000,-0.139,-0.059,0.779,0,0,0,0,0
8.024,1783037957.621,ARMED,move r+0.00 p+0.00 g+0.00 y+0.00,1.00,0.00,-1.00,0.000,0.000,0.000,0.000,0.000,0.000,0.000,0.000,-0.145,-0.06,0.78,0,0,0,0,0
8.059,1783037957.656,ARMED,move r+0.00 p+0.00 g+0.00 y+0.00,1.00,0.00,-1.00,0.000,0.000,0.000,0.000,0.000,0.000,0.000,0.000,-0.145,-0.06,0.78,0,0,0,0,0
8.093,1783037957.690,ARMED,move r+0.00 p+0.00 g+0.00 y+0.00,1.00,0.00,-1.00,0.000,0.000,0.000,0.000,0.000,0.000,0.000,0.000,-0.147,-0.061,0.783,0,0,0,0,0
8.128,1783037957.725,ARMED,TAKEOFF,1.00,1.00,-1.00,0.000,0.000,0.000,0.000,,,,,-0.147,-0.061,0.783,0,0,0,0,0
8.161,1783037957.758,ARMED,TAKEOFF,1.00,1.00,-1.00,0.000,0.000,0.000,0.000,,,,,-0.147,-0.061,0.783,0,0,0,0,0
8.195,1783037957.792,ARMED,move r+0.00 p+0.00 g+0.00 y+0.00,1.00,0.00,-1.00,0.000,0.000,0.000,0.000,0.000,0.000,0.000,0.000,-0.155,-0.059,0.788,0,70,70,70,70
8.229,1783037957.826,ARMED,move r+0.00 p+0.00 g+0.00 y+0.00,1.00,0.00,-1.00,0.000,0.000,0.000,0.000,0.000,0.000,0.000,0.000,-0.155,-0.059,0.788,0,70,70,70,70
8.263,1783037957.860,ARMED,move r+0.00 p+0.00 g+0.00 y+0.00,1.00,0.00,-1.00,0.000,0.000,0.000,0.000,0.000,0.000,0.000,0.000,-0.159,-0.068,0.79,0,70,70,70,70
8.296,1783037957.893,ARMED,move r+0.00 p+0.00 g+0.00 y+0.00,1.00,0.00,-1.00,0.000,0.000,0.000,0.000,0.000,0.000,0.000,0.000,-0.159,-0.068,0.79,0,70,70,70,70
8.330,1783037957.928,ARMED,move r+0.00 p+0.00 g+0.00 y+0.00,1.00,0.00,-1.00,0.000,0.000,0.000,0.000,0.000,0.000,0.000,0.000,-0.153,-0.066,0.791,0,70,70,70,70
8.364,1783037957.961,ARMED,move r+0.00 p+0.00 g+0.00 y+0.00,1.00,0.00,-1.00,0.000,0.000,0.000,0.000,0.000,0.000,0.000,0.000,-0.153,-0.066,0.791,0,70,70,70,70
8.397,1783037957.994,ARMED,move r+0.00 p+0.00 g+0.00 y+0.00,1.00,0.00,-1.00,0.000,0.000,0.000,0.000,0.000,0.000,0.000,0.000,-0.155,-0.063,0.792,0,70,70,70,70
8.431,1783037958.028,ARMED,move r+0.00 p+0.00 g+0.00 y+0.00,1.00,0.00,-1.00,0.000,0.000,0.000,0.000,0.000,0.000,0.000,0.000,-0.155,-0.063,0.792,0,70,70,70,70
8.465,1783037958.062,ARMED,move r+0.00 p+0.00 g+0.00 y+0.00,1.00,0.00,-1.00,0.000,0.000,0.000,0.000,0.000,0.000,0.000,0.000,-0.158,-0.065,0.793,0,70,70,70,70
8.500,1783037958.097,ARMED,move r+0.00 p+0.00 g+0.00 y+0.00,1.00,0.00,-1.00,0.000,0.000,0.000,0.000,0.000,0.000,0.000,0.000,-0.158,-0.065,0.793,0,70,70,70,70
8.533,1783037958.130,ARMED,move r+0.00 p+0.00 g+0.00 y+0.00,1.00,0.00,-1.00,0.000,0.000,0.000,0.000,0.000,0.000,0.000,0.000,-0.164,-0.069,0.794,0,70,70,70,70
8.567,1783037958.164,ARMED,move r+0.00 p+0.00 g+0.00 y+0.00,1.00,0.00,-1.00,0.000,0.000,0.000,0.000,0.000,0.000,0.000,0.000,-0.164,-0.068,0.797,0,70,70,70,70
8.601,1783037958.199,ARMED,move r+0.00 p+0.00 g+0.00 y+0.00,1.00,0.00,-1.00,0.000,0.000,0.000,0.000,0.000,0.000,0.000,0.000,-0.164,-0.068,0.797,0,70,70,70,70
8.636,1783037958.233,ARMED,move r+0.00 p+0.00 g+0.00 y+0.00,1.00,0.00,-1.00,0.000,0.000,0.000,0.000,0.000,0.000,0.000,0.000,-0.167,-0.066,0.798,0,70,70,70,70
8.669,1783037958.266,ARMED,move r+0.00 p+0.00 g+0.00 y+0.00,1.00,0.00,-1.00,0.000,0.000,0.000,0.000,0.000,0.000,0.000,0.000,-0.167,-0.066,0.798,0,70,70,70,70
8.704,1783037958.301,ARMED,move r+0.00 p+0.00 g+0.00 y+0.00,1.00,0.00,-1.00,0.000,0.000,0.000,0.000,0.000,0.000,0.000,0.000,-0.169,-0.064,0.798,0,70,70,70,70
8.737,1783037958.335,ARMED,move r+0.00 p+0.00 g+0.00 y+0.00,1.00,0.00,-1.00,0.000,0.000,0.000,0.000,0.000,0.000,0.000,0.000,-0.169,-0.064,0.798,0,70,70,70,70
8.772,1783037958.369,ARMED,move r+0.00 p+0.00 g+0.00 y+0.00,1.00,0.00,-1.00,0.000,0.000,0.000,0.000,0.000,0.000,0.000,0.000,-0.172,-0.045,0.803,0,70,70,70,70
8.805,1783037958.402,ARMED,move r+0.00 p+0.00 g+0.00 y+0.00,1.00,0.00,-1.00,0.000,0.000,0.000,0.000,0.000,0.000,0.000,0.000,-0.172,-0.045,0.803,0,70,70,70,70
8.838,1783037958.435,ARMED,move r+0.00 p+0.00 g+0.00 y+0.00,1.00,0.00,-1.00,0.000,0.000,0.000,0.000,0.000,0.000,0.000,0.000,-0.188,-0.021,0.806,0,70,70,70,70
8.873,1783037958.470,ARMED,move r+0.00 p+0.00 g+0.00 y+0.00,1.00,0.00,-1.00,0.000,0.000,0.000,0.000,0.000,0.000,0.000,0.000,-0.188,-0.021,0.806,0,70,70,70,70
8.906,1783037958.504,ARMED,move r+0.00 p+0.00 g+0.00 y+0.00,1.00,0.00,-1.00,0.000,0.000,0.000,0.000,0.000,0.000,0.000,0.000,-0.191,-0.015,0.808,0,70,70,70,70
8.941,1783037958.538,ARMED,move r+0.00 p+0.00 g+0.00 y+0.00,1.00,0.00,-1.00,0.000,0.000,0.000,0.000,0.000,0.000,0.000,0.000,-0.191,-0.015,0.808,0,70,70,70,70
8.974,1783037958.571,ARMED,move r+0.00 p+0.00 g+0.00 y+0.00,1.00,0.00,-1.00,0.000,0.000,0.000,0.000,0.000,0.000,0.000,0.000,-0.194,-0.011,0.811,0,70,70,70,70
9.009,1783037958.606,ARMED,move r+0.00 p+0.00 g+0.00 y+0.00,1.00,0.00,-1.00,0.000,0.000,0.000,0.000,0.000,0.000,0.000,0.000,-0.194,-0.011,0.811,0,70,70,70,70
9.042,1783037958.639,ARMED,move r+0.00 p+0.00 g+0.00 y+0.00,1.00,0.00,-1.00,0.000,0.000,0.000,0.000,0.000,0.000,0.000,0.000,-0.203,-0.001,0.814,0,72,72,72,72
9.077,1783037958.674,ARMED,move r+0.00 p+0.00 g+0.00 y+0.00,1.00,0.00,-1.00,0.000,0.000,0.000,0.000,0.000,0.000,0.000,0.000,-0.203,-0.001,0.814,0,72,72,72,72
9.110,1783037958.707,ARMED,move r+0.00 p+0.00 g+0.00 y+0.00,1.00,0.00,-1.00,0.000,0.000,0.000,0.000,0.000,0.000,0.000,0.000,-0.203,0.034,0.815,0,72,72,72,72
9.143,1783037958.740,ARMED,move r+0.00 p+0.00 g+0.00 y+0.00,1.00,0.00,-1.00,0.000,0.000,0.000,0.000,0.000,0.000,0.000,0.000,-0.203,0.034,0.815,0,72,72,72,72
9.177,1783037958.774,ARMED,move r+0.00 p+0.00 g+0.00 y+0.00,1.00,0.00,-1.00,0.000,0.000,0.000,0.000,0.000,0.000,0.000,0.000,-0.219,0.055,0.822,0,72,72,72,72
9.212,1783037958.809,ARMED,move r+0.00 p+0.00 g+0.00 y+0.00,1.00,0.00,-1.00,0.000,0.000,0.000,0.000,0.000,0.000,0.000,0.000,-0.219,0.055,0.822,0,72,72,72,72
9.246,1783037958.843,ARMED,move r+0.00 p+0.00 g+0.00 y+0.00,1.00,0.00,-1.00,0.000,0.000,0.000,0.000,0.000,0.000,0.000,0.000,-0.227,0.071,0.825,0,72,72,72,72
9.280,1783037958.877,ARMED,move r+0.00 p+0.00 g+0.00 y+0.00,1.00,0.00,-1.00,0.000,0.000,0.000,0.000,0.000,0.000,0.000,0.000,-0.227,0.071,0.825,0,72,72,72,72
9.314,1783037958.911,ARMED,move r+0.00 p+0.00 g+0.00 y+0.00,1.00,0.00,-1.00,0.000,0.000,0.000,0.000,0.000,0.000,0.000,0.000,-0.231,0.086,0.822,0,72,72,72,72
9.348,1783037958.945,ARMED,move r+0.00 p+0.00 g+0.00 y+0.00,1.00,0.00,-1.00,0.000,0.000,0.000,0.000,0.000,0.000,0.000,0.000,-0.231,0.086,0.822,0,72,72,72,72
9.381,1783037958.979,ARMED,move r+0.00 p+0.00 g+0.00 y+0.00,1.00,0.00,-1.00,0.000,0.000,0.000,0.000,0.000,0.000,0.000,0.000,-0.231,0.098,0.824,0,72,72,72,72
9.416,1783037959.013,ARMED,move r+0.00 p+0.00 g+0.00 y+0.00,1.00,0.00,-1.00,0.000,0.000,0.000,0.000,0.000,0.000,0.000,0.000,-0.234,0.113,0.823,0,72,72,72,72
9.449,1783037959.046,ARMED,move r+0.00 p+0.00 g+0.00 y+0.00,1.00,0.00,-1.00,0.000,0.000,0.000,0.000,0.000,0.000,0.000,0.000,-0.234,0.113,0.823,0,72,72,72,72
9.484,1783037959.081,ARMED,move r+0.00 p+0.00 g+0.00 y+0.00,1.00,0.00,-1.00,0.000,0.000,0.000,0.000,0.000,0.000,0.000,0.000,-0.234,0.13,0.825,0,72,72,72,72
9.518,1783037959.115,ARMED,move r+0.00 p+0.00 g+0.00 y+0.00,1.00,0.00,-1.00,0.000,0.000,0.000,0.000,0.000,0.000,0.000,0.000,-0.234,0.13,0.825,0,72,72,72,72
9.551,1783037959.148,ARMED,move r+0.00 p+0.00 g+0.00 y+0.00,1.00,0.00,-1.00,0.000,0.000,0.000,0.000,0.000,0.000,0.000,0.000,-0.236,0.144,0.827,0,72,72,72,72
9.585,1783037959.182,ARMED,move r+0.00 p+0.00 g+0.00 y+0.00,1.00,0.00,-1.00,0.000,0.000,0.000,0.000,0.000,0.000,0.000,0.000,-0.236,0.144,0.827,0,72,72,72,72
9.619,1783037959.216,ARMED,move r+0.00 p+0.00 g+0.00 y+0.00,1.00,0.00,-1.00,0.000,0.000,0.000,0.000,0.000,0.000,0.000,0.000,-0.236,0.158,0.826,0,72,72,72,72
9.653,1783037959.250,ARMED,move r+0.00 p+0.00 g+0.00 y+0.00,1.00,0.00,-1.00,0.000,0.000,0.000,0.000,0.000,0.000,0.000,0.000,-0.236,0.158,0.826,0,72,72,72,72
9.687,1783037959.284,ARMED,move r+0.00 p+0.00 g+0.00 y+0.00,1.00,0.00,-1.00,0.000,0.000,0.000,0.000,0.000,0.000,0.000,0.000,-0.239,0.169,0.828,0,72,72,72,72
9.721,1783037959.318,ARMED,move r+0.00 p+0.00 g+0.00 y+0.00,1.00,0.00,-1.00,0.000,0.000,0.000,0.000,0.000,0.000,0.000,0.000,-0.239,0.169,0.828,0,72,72,72,72
9.754,1783037959.352,ARMED,move r+0.00 p+0.00 g+0.00 y+0.00,1.00,0.00,-1.00,0.000,0.000,0.000,0.000,0.000,0.000,0.000,0.000,-0.238,0.164,0.831,0,72,72,72,72
9.789,1783037959.386,ARMED,move r+0.00 p+0.00 g+0.00 y+0.00,1.00,0.00,-1.00,0.000,0.000,0.000,0.000,0.000,0.000,0.000,0.000,-0.238,0.164,0.831,0,72,72,72,72
9.822,1783037959.419,ARMED,move r+0.00 p+0.00 g+0.00 y+0.00,1.00,0.00,-1.00,0.000,0.000,0.000,0.000,0.000,0.000,0.000,0.000,-0.238,0.159,0.834,0,72,72,72,72
9.856,1783037959.454,ARMED,move r+0.00 p+0.00 g+0.00 y+0.00,1.00,0.00,-1.00,0.000,0.000,0.000,0.000,0.000,0.000,0.000,0.000,-0.238,0.159,0.834,0,72,72,72,72
9.891,1783037959.488,ARMED,move r+0.00 p+0.00 g+0.00 y+0.00,1.00,0.00,-1.00,0.000,0.000,0.000,0.000,0.000,0.000,0.000,0.000,-0.239,0.16,0.835,0,76,74,76,76
9.925,1783037959.522,ARMED,move r+0.00 p+0.00 g+0.00 y+0.00,1.00,0.00,-1.00,0.000,0.000,0.000,0.000,0.000,0.000,0.000,0.000,-0.239,0.16,0.835,0,76,74,76,76
9.959,1783037959.556,ARMED,move r+0.00 p+0.00 g+0.00 y+0.00,1.00,0.00,-1.00,0.000,0.000,0.000,0.000,0.000,0.000,0.000,0.000,-0.24,0.165,0.839,0,80,78,80,80
9.992,1783037959.589,ARMED,move r+0.00 p+0.00 g+0.00 y+0.00,1.00,0.00,-1.00,0.000,0.000,0.000,0.000,0.000,0.000,0.000,0.000,-0.24,0.165,0.839,0,80,78,80,80
10.027,1783037959.624,ARMED,move r+0.00 p+0.00 g+0.00 y+0.00,1.00,0.00,-1.00,0.000,0.000,0.000,0.000,0.000,0.000,0.000,0.000,-0.24,0.171,0.841,0,88,86,88,88
10.061,1783037959.658,ARMED,move r+0.00 p+0.00 g+0.00 y+0.00,1.00,0.00,-1.00,0.000,0.000,0.000,0.000,0.000,0.000,0.000,0.000,-0.24,0.171,0.841,0,88,86,88,88
10.095,1783037959.692,ARMED,move r+0.00 p+0.00 g+0.00 y+0.00,1.00,0.00,-1.00,0.000,0.000,0.000,0.000,0.000,0.000,0.000,0.000,-0.243,0.173,0.841,0,92,91,91,92
10.129,1783037959.726,ARMED,move r+0.00 p+0.00 g+0.00 y+0.00,1.00,0.00,-1.00,0.000,0.000,0.000,0.000,0.000,0.000,0.000,0.000,-0.248,0.177,0.845,0,96,94,96,96
10.163,1783037959.760,ARMED,move r+0.00 p+0.00 g+0.00 y+0.00,1.00,0.00,-1.00,0.000,0.000,0.000,0.000,0.000,0.000,0.000,0.000,-0.248,0.177,0.845,0,96,94,96,96
10.197,1783037959.794,ARMED,move r+0.00 p+0.00 g+0.00 y+0.00,1.00,0.00,-1.00,0.000,0.000,0.000,0.000,0.000,0.000,0.000,0.000,-0.252,0.185,0.842,0,104,103,104,104
10.231,1783037959.828,ARMED,move r+0.00 p+0.00 g+0.00 y+0.00,1.00,0.00,-1.00,0.000,0.000,0.000,0.000,0.000,0.000,0.000,0.000,-0.252,0.185,0.842,0,104,103,104,104
10.265,1783037959.862,ARMED,move r+0.00 p+0.00 g+0.00 y+0.00,1.00,0.00,-1.00,0.000,0.000,0.000,0.000,0.000,0.000,0.000,0.000,-0.253,0.184,0.842,0,108,106,108,108
10.299,1783037959.896,ARMED,move r+0.00 p+0.00 g+0.00 y+0.00,1.00,0.00,-1.00,0.000,0.000,0.000,0.000,0.000,0.000,0.000,0.000,-0.253,0.184,0.842,0,108,106,108,108
10.333,1783037959.930,ARMED,move r+0.00 p+0.00 g+0.00 y+0.00,1.00,0.00,-1.00,0.000,0.000,0.000,0.000,0.000,0.000,0.000,0.000,-0.255,0.178,0.844,0,112,110,112,112
10.367,1783037959.964,ARMED,move r+0.00 p+0.00 g+0.00 y+0.00,1.00,0.00,-1.00,0.000,0.000,0.000,0.000,0.000,0.000,0.000,0.000,-0.255,0.178,0.844,0,112,110,112,112
10.400,1783037959.998,ARMED,move r+0.00 p+0.00 g+0.00 y+0.00,1.00,0.00,-1.00,0.000,0.000,0.000,0.000,0.000,0.000,0.000,0.000,-0.256,0.184,0.845,0,116,114,116,116
10.434,1783037960.031,ARMED,move r+0.00 p+0.00 g+0.00 y+0.00,1.00,0.00,-1.00,0.000,0.000,0.000,0.000,0.000,0.000,0.000,0.000,-0.256,0.184,0.845,0,116,114,116,116
10.468,1783037960.065,ARMED,move r+0.00 p+0.00 g+0.00 y+0.00,1.00,0.00,-1.00,0.000,0.000,0.000,0.000,0.000,0.000,0.000,0.000,-0.258,0.193,0.849,0,124,122,124,124
10.503,1783037960.100,ARMED,move r+0.00 p+0.00 g+0.00 y+0.00,1.00,0.00,-1.00,0.000,0.000,0.000,0.000,0.000,0.000,0.000,0.000,-0.258,0.193,0.849,0,124,122,124,124
10.536,1783037960.133,ARMED,move r+0.00 p+0.00 g+0.00 y+0.00,1.00,0.00,-1.00,0.000,0.000,0.000,0.000,0.000,0.000,0.000,0.000,-0.258,0.207,0.849,0,128,126,128,128
10.570,1783037960.167,ARMED,move r+0.00 p+0.00 g+0.00 y+0.00,1.00,0.00,-1.00,0.000,0.000,0.000,0.000,0.000,0.000,0.000,0.000,-0.258,0.207,0.849,0,128,126,128,128
10.605,1783037960.202,ARMED,move r+0.00 p+0.00 g+0.00 y+0.00,1.00,0.00,-1.00,0.000,0.000,0.000,0.000,0.000,0.000,0.000,0.000,-0.257,0.215,0.851,0,132,130,132,132
10.639,1783037960.236,ARMED,move r+0.00 p+0.00 g+0.00 y+0.00,1.00,0.00,-1.00,0.000,0.000,0.000,0.000,0.000,0.000,0.000,0.000,-0.257,0.215,0.851,0,132,130,132,132
10.673,1783037960.270,ARMED,move r+0.00 p+0.00 g+0.00 y+0.00,1.00,0.00,-1.00,0.000,0.000,0.000,0.000,0.000,0.000,0.000,0.000,-0.254,0.22,0.853,0,140,138,140,140
10.707,1783037960.304,ARMED,move r+0.00 p+0.00 g+0.00 y+0.00,1.00,0.00,-1.00,0.000,0.000,0.000,0.000,0.000,0.000,0.000,0.000,-0.254,0.22,0.853,0,140,138,140,140
10.741,1783037960.338,ARMED,move r+0.00 p+0.00 g+0.00 y+0.00,1.00,0.00,-1.00,0.000,0.000,0.000,0.000,0.000,0.000,0.000,0.000,-0.247,0.223,0.856,0,144,142,144,144
10.775,1783037960.372,ARMED,move r+0.00 p+0.00 g+0.00 y+0.00,1.00,0.00,-1.00,0.000,0.000,0.000,0.000,0.000,0.000,0.000,0.000,-0.247,0.223,0.856,0,144,142,144,144
10.809,1783037960.406,ARMED,move r+0.00 p+0.00 g+0.00 y+0.00,1.00,0.00,-1.00,0.000,0.000,0.000,0.000,0.000,0.000,0.000,0.000,-0.237,0.229,0.859,0,148,146,148,148
10.842,1783037960.439,ARMED,move r+0.00 p+0.00 g+0.00 y+0.00,1.00,0.00,-1.00,0.000,0.000,0.000,0.000,0.000,0.000,0.000,0.000,-0.237,0.229,0.859,0,148,146,148,148
10.876,1783037960.473,ARMED,move r+0.00 p+0.00 g+0.00 y+0.00,1.00,0.00,-1.00,0.000,0.000,0.000,0.000,0.000,0.000,0.000,0.000,-0.239,0.238,0.859,0,156,154,156,156
10.910,1783037960.507,ARMED,move r+0.00 p+0.00 g+0.00 y+0.00,1.00,0.00,-1.00,0.000,0.000,0.000,0.000,0.000,0.000,0.000,0.000,-0.239,0.238,0.859,0,156,154,156,156
10.944,1783037960.541,ARMED,move r+0.00 p+0.00 g+0.00 y+0.00,1.00,0.00,-1.00,0.000,0.000,0.000,0.000,0.000,0.000,0.000,0.000,-0.229,0.245,-177.896,0,160,158,160,160
10.978,1783037960.575,ARMED,move r+0.00 p+0.00 g+0.00 y+0.00,1.00,0.00,-1.00,0.000,0.000,0.000,0.000,0.000,0.000,0.000,0.000,-0.232,0.252,-177.896,0,164,162,164,164
11.012,1783037960.609,ARMED,move r+0.00 p+0.00 g+0.00 y+0.00,1.00,0.00,-1.00,0.000,0.000,0.000,0.000,0.000,0.000,0.000,0.000,-0.232,0.252,-177.896,0,164,162,164,164
11.045,1783037960.642,ARMED,move r+0.00 p+0.00 g+0.00 y+0.00,1.00,0.00,-1.00,0.000,0.000,0.000,0.000,0.000,0.000,0.000,0.000,-0.236,0.259,-177.891,270,209,207,209,209
11.080,1783037960.677,ARMED,move r+0.00 p+0.00 g+0.00 y+0.00,1.00,0.00,-1.00,0.000,0.000,0.000,0.000,0.000,0.000,0.000,0.000,-0.236,0.259,-177.891,270,209,207,209,209
11.113,1783037960.710,ARMED,move r+0.00 p+0.00 g+0.00 y+0.00,1.00,0.00,-1.00,0.000,0.000,0.000,0.000,0.000,0.000,0.000,0.000,-0.237,0.263,-177.89,283,222,221,223,223
11.148,1783037960.745,ARMED,move r+0.00 p+0.00 g+0.00 y+0.00,1.00,0.00,-1.00,0.000,0.000,0.000,0.000,0.000,0.000,0.000,0.000,-0.237,0.263,-177.89,283,222,221,223,223
11.181,1783037960.779,ARMED,move r+0.00 p+0.00 g+0.00 y+0.00,1.00,0.00,-1.00,0.000,0.000,0.000,0.000,0.000,0.000,0.000,0.000,-0.236,0.252,-177.889,271,255,253,255,255
11.215,1783037960.812,ARMED,move r+0.00 p+0.00 g+0.00 y+0.00,1.00,0.00,-1.00,0.000,0.000,0.000,0.000,0.000,0.000,0.000,0.000,-0.236,0.252,-177.889,271,255,253,255,255
11.250,1783037960.847,ARMED,move r+0.00 p+0.00 g+0.00 y+0.00,1.00,0.00,-1.00,0.000,0.000,0.000,0.000,0.000,0.000,0.000,0.000,-0.232,0.252,-177.89,308,228,227,228,229
11.283,1783037960.880,ARMED,move r+0.00 p+0.00 g+0.00 y+0.00,1.00,0.00,-1.00,0.000,0.000,0.000,0.000,0.000,0.000,0.000,0.000,-0.232,0.252,-177.89,308,228,227,228,229
11.317,1783037960.914,ARMED,move r+0.00 p+0.00 g+0.00 y+0.00,1.00,0.00,-1.00,0.000,0.000,0.000,0.000,0.000,0.000,0.000,0.000,-0.224,0.259,-177.891,299,244,243,244,245
11.350,1783037960.947,ARMED,move r+0.00 p+0.00 g+0.00 y+0.00,1.00,0.00,-1.00,0.000,0.000,0.000,0.000,0.000,0.000,0.000,0.000,-0.224,0.259,-177.891,299,244,243,244,245
11.384,1783037960.981,ARMED,move r+0.00 p+0.00 g+0.00 y+0.00,1.00,0.00,-1.00,0.000,0.000,0.000,0.000,0.000,0.000,0.000,0.000,-0.216,0.253,-177.886,308,253,252,254,253
11.418,1783037961.015,ARMED,move r+0.00 p+0.00 g+0.00 y+0.00,1.00,0.00,-1.00,0.000,0.000,0.000,0.000,0.000,0.000,0.000,0.000,-0.216,0.253,-177.886,308,253,252,254,253
11.452,1783037961.049,ARMED,move r+0.00 p+0.00 g+0.00 y+0.00,1.00,0.00,-1.00,0.000,0.000,0.000,0.000,0.000,0.000,0.000,0.000,-0.206,0.244,-177.885,345,240,239,241,240
11.486,1783037961.083,ARMED,move r+0.00 p+0.00 g+0.00 y+0.00,1.00,0.00,-1.00,0.000,0.000,0.000,0.000,0.000,0.000,0.000,0.000,-0.206,0.244,-177.885,345,240,239,241,240
11.520,1783037961.117,ARMED,move r+0.00 p+0.00 g+0.00 y+0.00,1.00,0.00,-1.00,0.000,0.000,0.000,0.000,0.000,0.000,0.000,0.000,-0.208,0.236,-177.887,431,188,187,188,188
11.554,1783037961.151,ARMED,move r+0.00 p+0.00 g+0.00 y+0.00,1.00,0.00,-1.00,0.000,0.000,0.000,0.000,0.000,0.000,0.000,0.000,-0.208,0.236,-177.887,431,188,187,188,188
11.588,1783037961.185,ARMED,move r+0.00 p+0.00 g+0.00 y+0.00,1.00,0.00,-1.00,0.000,0.000,0.000,0.000,0.000,0.000,0.000,0.000,-0.205,0.227,-177.886,386,195,194,195,195
11.621,1783037961.219,ARMED,move r+0.00 p+0.00 g+0.00 y+0.00,1.00,0.00,-1.00,0.000,0.000,0.000,0.000,0.000,0.000,0.000,0.000,-0.205,0.227,-177.886,386,195,194,195,195
11.656,1783037961.253,ARMED,move r+0.00 p+0.00 g+0.00 y+0.00,1.00,0.00,-1.00,0.000,0.000,0.000,0.000,0.000,0.000,0.000,0.000,-0.206,0.23,-177.884,387,186,185,186,186
11.689,1783037961.286,ARMED,move r+0.00 p+0.00 g+0.00 y+0.00,1.00,0.00,-1.00,0.000,0.000,0.000,0.000,0.000,0.000,0.000,0.000,-0.206,0.23,-177.884,387,186,185,186,186
11.723,1783037961.320,ARMED,move r+0.00 p+0.00 g+0.00 y+0.00,1.00,0.00,-1.00,0.000,0.000,0.000,0.000,0.000,0.000,0.000,0.000,-0.208,0.226,-177.883,327,233,231,233,233
11.757,1783037961.354,ARMED,move r+0.00 p+0.00 g+0.00 y+0.00,1.00,0.00,-1.00,0.000,0.000,0.000,0.000,0.000,0.000,0.000,0.000,-0.2,0.22,-177.881,379,192,190,192,192
11.791,1783037961.388,ARMED,move r+0.00 p+0.00 g+0.00 y+0.00,1.00,0.00,-1.00,0.000,0.000,0.000,0.000,0.000,0.000,0.000,0.000,-0.2,0.22,-177.881,379,192,190,192,192
11.825,1783037961.422,ARMED,move r+0.00 p+0.00 g+0.00 y+0.00,1.00,0.00,-1.00,0.000,0.000,0.000,0.000,0.000,0.000,0.000,0.000,-0.201,0.214,-177.881,330,227,225,227,227
11.859,1783037961.456,ARMED,move r+0.00 p+0.00 g+0.00 y+0.00,1.00,0.00,-1.00,0.000,0.000,0.000,0.000,0.000,0.000,0.000,0.000,-0.201,0.214,-177.881,330,227,225,227,227
11.892,1783037961.490,ARMED,move r+0.00 p+0.00 g+0.00 y+0.00,1.00,0.00,-1.00,0.000,0.000,0.000,0.000,0.000,0.000,0.000,0.000,-0.206,0.21,-177.882,385,188,187,188,188
11.927,1783037961.524,ARMED,move r+0.00 p+0.00 g+0.00 y+0.00,1.00,0.00,-1.00,0.000,0.000,0.000,0.000,0.000,0.000,0.000,0.000,-0.206,0.21,-177.882,385,188,187,188,188
11.961,1783037961.558,ARMED,move r+0.00 p+0.00 g+0.00 y+0.00,1.00,0.00,-1.00,0.000,0.000,0.000,0.000,0.000,0.000,0.000,0.000,-0.209,0.202,-177.878,347,223,221,223,223
11.994,1783037961.591,ARMED,move r+0.00 p+0.00 g+0.00 y+0.00,1.00,0.00,-1.00,0.000,0.000,0.000,0.000,0.000,0.000,0.000,0.000,-0.209,0.202,-177.878,347,223,221,223,223
12.029,1783037961.626,ARMED,move r+0.00 p+0.00 g+0.00 y+0.00,1.00,0.00,-1.00,0.000,0.000,0.000,0.000,0.000,0.000,0.000,0.000,-0.211,0.211,-177.878,400,187,185,187,187
12.062,1783037961.659,ARMED,move r+0.00 p+0.00 g+0.00 y+0.00,1.00,0.00,-1.00,0.000,0.000,0.000,0.000,0.000,0.000,0.000,0.000,-0.211,0.211,-177.878,400,187,185,187,187
12.097,1783037961.694,ARMED,move r+0.00 p+0.00 g+0.00 y+0.00,1.00,0.00,-1.00,0.000,0.000,0.000,0.000,0.000,0.000,0.000,0.000,-0.213,0.211,-177.877,462,164,162,163,163
12.130,1783037961.728,ARMED,move r+0.00 p+0.00 g+0.00 y+0.00,1.00,0.00,-1.00,0.000,0.000,0.000,0.000,0.000,0.000,0.000,0.000,-0.213,0.211,-177.877,462,164,162,163,163
12.165,1783037961.762,ARMED,move r+0.00 p+0.00 g+0.00 y+0.00,1.00,0.00,-1.00,0.000,0.000,0.000,0.000,0.000,0.000,0.000,0.000,-0.214,0.21,-177.873,331,254,252,254,254
12.198,1783037961.795,ARMED,move r+0.00 p+0.00 g+0.00 y+0.00,1.00,0.00,-1.00,0.000,0.000,0.000,0.000,0.000,0.000,0.000,0.000,-0.214,0.21,-177.873,331,254,252,254,254
12.232,1783037961.829,ARMED,move r+0.00 p+0.00 g+0.00 y+0.00,1.00,0.00,-1.00,0.000,0.000,0.000,0.000,0.000,0.000,0.000,0.000,-0.215,0.217,-177.878,305,245,244,245,246
12.266,1783037961.863,ARMED,move r+0.00 p+0.00 g+0.00 y+0.00,1.00,0.00,-1.00,0.000,0.000,0.000,0.000,0.000,0.000,0.000,0.000,-0.215,0.217,-177.878,305,245,244,245,246
12.299,1783037961.896,ARMED,move r+0.00 p+0.00 g+0.00 y+0.00,1.00,0.00,-1.00,0.000,0.000,0.000,0.000,0.000,0.000,0.000,0.000,-0.213,0.215,-177.874,329,217,215,217,217
12.333,1783037961.930,ARMED,move r+0.00 p+0.00 g+0.00 y+0.00,1.00,0.00,-1.00,0.000,0.000,0.000,0.000,0.000,0.000,0.000,0.000,-0.213,0.215,-177.874,329,217,215,217,217
12.367,1783037961.964,ARMED,move r+0.00 p+0.00 g+0.00 y+0.00,1.00,0.00,-1.00,0.000,0.000,0.000,0.000,0.000,0.000,0.000,0.000,-0.215,0.216,-177.872,391,182,180,182,182
12.401,1783037961.998,ARMED,move r+0.00 p+0.00 g+0.00 y+0.00,1.00,0.00,-1.00,0.000,0.000,0.000,0.000,0.000,0.000,0.000,0.000,-0.215,0.216,-177.872,391,182,180,182,182
12.436,1783037962.033,ARMED,move r+0.00 p+0.00 g+0.00 y+0.00,1.00,0.00,-1.00,0.000,0.000,0.000,0.000,0.000,0.000,0.000,0.000,-0.216,0.219,-177.87,315,246,244,246,246
12.470,1783037962.067,ARMED,move r+0.00 p+0.00 g+0.00 y+0.00,1.00,0.00,-1.00,0.000,0.000,0.000,0.000,0.000,0.000,0.000,0.000,-0.216,0.219,-177.87,315,246,244,246,246
12.503,1783037962.100,ARMED,move r+0.00 p+0.00 g+0.00 y+0.00,1.00,0.00,-1.00,0.000,0.000,0.000,0.000,0.000,0.000,0.000,0.000,-0.216,0.216,-177.87,367,201,199,201,201
12.537,1783037962.134,ARMED,move r+0.00 p+0.00 g+0.00 y+0.00,1.00,0.00,-1.00,0.000,0.000,0.000,0.000,0.000,0.000,0.000,0.000,-0.216,0.209,-177.867,361,206,204,206,205
12.572,1783037962.169,ARMED,move r+0.00 p+0.00 g+0.00 y+0.00,1.00,0.00,-1.00,0.000,0.000,0.000,0.000,0.000,0.000,0.000,0.000,-0.216,0.209,-177.867,361,206,204,206,205
12.605,1783037962.202,ARMED,move r+0.00 p+0.00 g+0.00 y+0.00,1.00,0.00,-1.00,0.000,0.000,0.000,0.000,0.000,0.000,0.000,0.000,-0.208,0.203,-177.866,350,215,213,215,215
12.640,1783037962.237,ARMED,move r+0.00 p+0.00 g+0.00 y+0.00,1.00,0.00,-1.00,0.000,0.000,0.000,0.000,0.000,0.000,0.000,0.000,-0.208,0.203,-177.866,350,215,213,215,215
12.674,1783037962.271,ARMED,move r+0.00 p+0.00 g+0.00 y+0.00,1.00,0.00,-1.00,0.000,0.000,0.000,0.000,0.000,0.000,0.000,0.000,-0.197,0.192,-177.864,328,226,224,225,225
12.708,1783037962.305,ARMED,move r+0.00 p+0.00 g+0.00 y+0.00,1.00,0.00,-1.00,0.000,0.000,0.000,0.000,0.000,0.000,0.000,0.000,-0.197,0.192,-177.864,328,226,224,225,225
12.742,1783037962.339,ARMED,move r+0.00 p+0.00 g+0.00 y+0.00,1.00,0.00,-1.00,0.000,0.000,0.000,0.000,0.000,0.000,0.000,0.000,-0.193,0.185,-177.862,319,233,231,233,233
12.776,1783037962.373,ARMED,move r+0.00 p+0.00 g+0.00 y+0.00,1.00,0.00,-1.00,0.000,0.000,0.000,0.000,0.000,0.000,0.000,0.000,-0.193,0.185,-177.862,319,233,231,233,233
12.809,1783037962.406,ARMED,move r+0.00 p+0.00 g+0.00 y+0.00,1.00,0.00,-1.00,0.000,0.000,0.000,0.000,0.000,0.000,0.000,0.000,-0.186,0.179,-177.859,341,216,214,216,215
12.843,1783037962.441,ARMED,move r+0.00 p+0.00 g+0.00 y+0.00,1.00,0.00,-1.00,0.000,0.000,0.000,0.000,0.000,0.000,0.000,0.000,-0.186,0.179,-177.859,341,216,214,216,215
12.877,1783037962.474,ARMED,move r+0.00 p+0.00 g+0.00 y+0.00,1.00,0.00,-1.00,0.000,0.000,0.000,0.000,0.000,0.000,0.000,0.000,-0.193,0.174,-177.856,329,227,225,227,226
12.911,1783037962.508,ARMED,move r+0.00 p+0.00 g+0.00 y+0.00,1.00,0.00,-1.00,0.000,0.000,0.000,0.000,0.000,0.000,0.000,0.000,-0.193,0.174,-177.856,329,227,225,227,226
12.945,1783037962.542,ARMED,move r+0.00 p+0.00 g+0.00 y+0.00,1.00,0.00,-1.00,0.000,0.000,0.000,0.000,0.000,0.000,0.000,0.000,-0.196,0.167,-177.854,350,211,209,211,210
12.979,1783037962.576,ARMED,move r+0.00 p+0.00 g+0.00 y+0.00,1.00,0.00,-1.00,0.000,0.000,0.000,0.000,0.000,0.000,0.000,0.000,-0.196,0.167,-177.854,350,211,209,211,210
13.013,1783037962.610,ARMED,move r+0.00 p+0.00 g+0.00 y+0.00,1.00,0.00,-1.00,0.000,0.000,0.000,0.000,0.000,0.000,0.000,0.000,-0.193,0.163,-177.855,346,222,220,221,221
13.047,1783037962.644,ARMED,move r+0.00 p+0.00 g+0.00 y+0.00,1.00,0.00,-1.00,0.000,0.000,0.000,0.000,0.000,0.000,0.000,0.000,-0.193,0.163,-177.855,346,222,220,221,221
13.081,1783037962.678,ARMED,move r+0.00 p+0.00 g+0.00 y+0.00,1.00,0.00,-1.00,0.000,0.000,0.000,0.000,0.000,0.000,0.000,0.000,-0.195,0.166,-177.851,330,239,237,239,238
13.116,1783037962.713,ARMED,move r+0.00 p+0.00 g+0.00 y+0.00,1.00,0.00,-1.00,0.000,0.000,0.000,0.000,0.000,0.000,0.000,0.000,-0.195,0.166,-177.851,330,239,237,239,238
13.150,1783037962.747,ARMED,move r+0.00 p+0.00 g+0.00 y+0.00,1.00,0.00,-1.00,0.000,0.000,0.000,0.000,0.000,0.000,0.000,0.000,-0.187,0.171,-177.848,339,223,221,222,222
13.183,1783037962.780,ARMED,move r+0.00 p+0.00 g+0.00 y+0.00,1.00,0.00,-1.00,0.000,0.000,0.000,0.000,0.000,0.000,0.000,0.000,-0.187,0.171,-177.848,339,223,221,222,222
13.217,1783037962.814,ARMED,move r+0.00 p+0.00 g+0.00 y+0.00,1.00,0.00,-1.00,0.000,0.000,0.000,0.000,0.000,0.000,0.000,0.000,-0.182,0.169,-177.849,334,228,227,228,228
13.251,1783037962.848,ARMED,move r+0.00 p+0.00 g+0.00 y+0.00,1.00,0.00,-1.00,0.000,0.000,0.000,0.000,0.000,0.000,0.000,0.000,-0.182,0.169,-177.849,334,228,227,228,228
13.285,1783037962.882,ARMED,move r+0.00 p+0.00 g+0.00 y+0.00,1.00,0.00,-1.00,0.000,0.000,0.000,0.000,0.000,0.000,0.000,0.000,-0.175,0.168,-177.847,312,241,239,241,240
13.319,1783037962.916,ARMED,move r+0.00 p+0.00 g+0.00 y+0.00,1.00,0.00,-1.00,0.000,0.000,0.000,0.000,0.000,0.000,0.000,0.000,-0.171,0.162,-177.847,372,197,195,197,196
13.353,1783037962.950,ARMED,move r+0.00 p+0.00 g+0.00 y+0.00,1.00,0.00,-1.00,0.000,0.000,0.000,0.000,0.000,0.000,0.000,0.000,-0.171,0.162,-177.847,372,197,195,197,196
13.386,1783037962.983,ARMED,move r+0.00 p+0.00 g+0.00 y+0.00,1.00,0.00,-1.00,0.000,0.000,0.000,0.000,0.000,0.000,0.000,0.000,-0.172,0.157,-177.842,323,235,233,235,234
13.421,1783037963.018,ARMED,move r+0.00 p+0.00 g+0.00 y+0.00,1.00,0.00,-1.00,0.000,0.000,0.000,0.000,0.000,0.000,0.000,0.000,-0.172,0.157,-177.842,323,235,233,235,234
13.455,1783037963.052,ARMED,move r+0.00 p+0.00 g+0.00 y+0.00,1.00,0.00,-1.00,0.000,0.000,0.000,0.000,0.000,0.000,0.000,0.000,-0.172,0.158,-177.839,311,243,241,243,242
13.489,1783037963.086,ARMED,move r+0.00 p+0.00 g+0.00 y+0.00,1.00,0.00,-1.00,0.000,0.000,0.000,0.000,0.000,0.000,0.000,0.000,-0.172,0.158,-177.839,311,243,241,243,242
13.523,1783037963.120,ARMED,move r+0.00 p+0.00 g+0.00 y+0.00,1.00,0.00,-1.00,0.000,0.000,0.000,0.000,0.000,0.000,0.000,0.000,-0.163,0.156,-177.841,371,198,196,198,197
13.556,1783037963.153,ARMED,move r+0.00 p+0.00 g+0.00 y+0.00,1.00,0.00,-1.00,0.000,0.000,0.000,0.000,0.000,0.000,0.000,0.000,-0.163,0.156,-177.841,371,198,196,198,197
13.590,1783037963.187,ARMED,move r+0.00 p+0.00 g+0.00 y+0.00,1.00,0.00,-1.00,0.000,0.000,0.000,0.000,0.000,0.000,0.000,0.000,-0.164,0.148,-177.84,335,243,241,243,243
13.624,1783037963.221,ARMED,move r+0.00 p+0.00 g+0.00 y+0.00,1.00,0.00,-1.00,0.000,0.000,0.000,0.000,0.000,0.000,0.000,0.000,-0.164,0.148,-177.84,335,243,241,243,243
13.658,1783037963.255,ARMED,move r+0.00 p+0.00 g+0.00 y+0.00,1.00,0.00,-1.00,0.000,0.000,0.000,0.000,0.000,0.000,0.000,0.000,-0.163,0.149,-177.837,337,229,226,228,228
13.692,1783037963.289,ARMED,move r+0.00 p+0.00 g+0.00 y+0.00,1.00,0.00,-1.00,0.000,0.000,0.000,0.000,0.000,0.000,0.000,0.000,-0.163,0.149,-177.837,337,229,226,228,228
13.727,1783037963.324,ARMED,move r+0.00 p+0.00 g+0.00 y+0.00,1.00,0.00,-1.00,0.000,0.000,0.000,0.000,0.000,0.000,0.000,0.000,-0.166,0.151,-177.838,323,231,229,231,230
13.760,1783037963.357,ARMED,move r+0.00 p+0.00 g+0.00 y+0.00,1.00,0.00,-1.00,0.000,0.000,0.000,0.000,0.000,0.000,0.000,0.000,-0.166,0.151,-177.838,323,231,229,231,230
13.795,1783037963.392,ARMED,move r+0.00 p+0.00 g+0.00 y+0.00,1.00,0.00,-1.00,0.000,0.000,0.000,0.000,0.000,0.000,0.000,0.000,-0.171,0.159,-177.832,315,239,236,239,238
13.828,1783037963.425,ARMED,move r+0.00 p+0.00 g+0.00 y+0.00,1.00,0.00,-1.00,0.000,0.000,0.000,0.000,0.000,0.000,0.000,0.000,-0.171,0.159,-177.832,315,239,236,239,238
13.862,1783037963.459,ARMED,move r+0.00 p+0.00 g+0.00 y+0.00,1.00,0.00,-1.00,0.000,0.000,0.000,0.000,0.000,0.000,0.000,0.000,-0.169,0.152,-177.833,339,220,218,220,219
13.896,1783037963.494,ARMED,move r+0.00 p+0.00 g+0.00 y+0.00,1.00,0.00,-1.00,0.000,0.000,0.000,0.000,0.000,0.000,0.000,0.000,-0.169,0.152,-177.833,339,220,218,220,219
13.930,1783037963.527,ARMED,move r+0.00 p+0.00 g+0.00 y+0.00,1.00,0.00,-1.00,0.000,0.000,0.000,0.000,0.000,0.000,0.000,0.000,-0.173,0.164,-177.833,324,233,231,233,233
13.965,1783037963.562,ARMED,move r+0.00 p+0.00 g+0.00 y+0.00,1.00,0.00,-1.00,0.000,0.000,0.000,0.000,0.000,0.000,0.000,0.000,-0.173,0.164,-177.833,324,233,231,233,233
13.998,1783037963.595,ARMED,move r+0.00 p+0.00 g+0.00 y+0.00,1.00,0.00,-1.00,0.000,0.000,0.000,0.000,0.000,0.000,0.000,0.000,-0.175,0.161,-177.828,308,203,201,203,202
14.031,1783037963.628,ARMED,move r+0.00 p+0.00 g+0.00 y+0.00,1.00,0.00,-1.00,0.000,0.000,0.000,0.000,0.000,0.000,0.000,0.000,-0.175,0.161,-177.828,308,203,201,203,202
14.065,1783037963.663,ARMED,move r+0.00 p+0.00 g+0.00 y+0.00,1.00,0.00,-1.00,0.000,0.000,0.000,0.000,0.000,0.000,0.000,0.000,-0.179,0.156,-177.827,319,205,202,204,204
14.099,1783037963.697,ARMED,move r+0.00 p+0.00 g+0.00 y+0.00,1.00,0.00,-1.00,0.000,0.000,0.000,0.000,0.000,0.000,0.000,0.000,-0.185,0.16,-177.826,362,195,192,194,194
14.134,1783037963.731,ARMED,move r+0.00 p+0.00 g+0.00 y+0.00,1.00,0.00,-1.00,0.000,0.000,0.000,0.000,0.000,0.000,0.000,0.000,-0.185,0.16,-177.826,362,195,192,194,194
14.168,1783037963.765,ARMED,move r+0.00 p+0.00 g+0.00 y+0.00,1.00,0.00,-1.00,0.000,0.000,0.000,0.000,0.000,0.000,0.000,0.000,-0.18,0.164,-177.825,309,220,218,220,220
14.202,1783037963.799,ARMED,move r+0.00 p+0.00 g+0.00 y+0.00,1.00,0.00,-1.00,0.000,0.000,0.000,0.000,0.000,0.000,0.000,0.000,-0.18,0.164,-177.825,309,220,218,220,220
14.236,1783037963.833,ARMED,move r+0.00 p+0.00 g+0.00 y+0.00,1.00,0.00,-1.00,0.000,0.000,0.000,0.000,0.000,0.000,0.000,0.000,-0.173,0.162,-177.822,286,228,226,228,227
14.270,1783037963.867,ARMED,move r+0.00 p+0.00 g+0.00 y+0.00,1.00,0.00,-1.00,0.000,0.000,0.000,0.000,0.000,0.000,0.000,0.000,-0.173,0.162,-177.822,286,228,226,228,227
14.303,1783037963.901,ARMED,move r+0.00 p+0.00 g+0.00 y+0.00,1.00,0.00,-1.00,0.000,0.000,0.000,0.000,0.000,0.000,0.000,0.000,-0.18,0.159,-177.82,277,229,227,229,228
14.337,1783037963.934,ARMED,move r+0.00 p+0.00 g+0.00 y+0.00,1.00,0.00,-1.00,0.000,0.000,0.000,0.000,0.000,0.000,0.000,0.000,-0.18,0.159,-177.82,277,229,227,229,228
14.371,1783037963.968,ARMED,move r+0.00 p+0.00 g+0.00 y+0.00,1.00,0.00,-1.00,0.000,0.000,0.000,0.000,0.000,0.000,0.000,0.000,-0.186,0.153,-177.819,295,221,218,221,220
14.405,1783037964.002,ARMED,move r+0.00 p+0.00 g+0.00 y+0.00,1.00,0.00,-1.00,0.000,0.000,0.000,0.000,0.000,0.000,0.000,0.000,-0.186,0.153,-177.819,295,221,218,221,220
14.440,1783037964.037,ARMED,move r+0.00 p+0.00 g+0.00 y+0.00,1.00,0.00,-1.00,0.000,0.000,0.000,0.000,0.000,0.000,0.000,0.000,-0.189,0.15,-177.815,281,225,222,225,224
14.473,1783037964.070,ARMED,move r+0.00 p+0.00 g+0.00 y+0.00,1.00,0.00,-1.00,0.000,0.000,0.000,0.000,0.000,0.000,0.000,0.000,-0.189,0.15,-177.815,281,225,222,225,224
14.507,1783037964.104,ARMED,move r+0.00 p+0.00 g+0.00 y+0.00,1.00,0.00,-1.00,0.000,0.000,0.000,0.000,0.000,0.000,0.000,0.000,-0.191,0.155,-177.815,290,222,220,222,221
14.542,1783037964.139,ARMED,move r+0.00 p+0.00 g+0.00 y+0.00,1.00,0.00,-1.00,0.000,0.000,0.000,0.000,0.000,0.000,0.000,0.000,-0.191,0.155,-177.815,290,222,220,222,221
14.575,1783037964.172,ARMED,move r+0.00 p+0.00 g+0.00 y+0.00,1.00,0.00,-1.00,0.000,0.000,0.000,0.000,0.000,0.000,0.000,0.000,-0.187,0.162,-177.815,292,223,220,223,222
14.609,1783037964.206,ARMED,move r+0.00 p+0.00 g+0.00 y+0.00,1.00,0.00,-1.00,0.000,0.000,0.000,0.000,0.000,0.000,0.000,0.000,-0.187,0.162,-177.815,292,223,220,223,222
14.643,1783037964.240,ARMED,move r+0.00 p+0.00 g+0.00 y+0.00,1.00,0.00,-1.00,0.000,0.000,0.000,0.000,0.000,0.000,0.000,0.000,-0.192,0.171,-177.811,314,218,215,217,217
14.677,1783037964.274,ARMED,move r+0.00 p+0.00 g+0.00 y+0.00,1.00,0.00,-1.00,0.000,0.000,0.000,0.000,0.000,0.000,0.000,0.000,-0.192,0.171,-177.811,314,218,215,217,217
14.710,1783037964.308,ARMED,move r+0.00 p+0.00 g+0.00 y+0.00,1.00,0.00,-1.00,0.000,0.000,0.000,0.000,0.000,0.000,0.000,0.000,-0.186,0.172,-177.812,339,213,210,213,213
14.745,1783037964.342,ARMED,move r+0.00 p+0.00 g+0.00 y+0.00,1.00,0.00,-1.00,0.000,0.000,0.000,0.000,0.000,0.000,0.000,0.000,-0.186,0.172,-177.812,339,213,210,213,213
14.779,1783037964.376,ARMED,move r+0.00 p+0.00 g+0.00 y+0.00,1.00,0.00,-1.00,0.000,0.000,0.000,0.000,0.000,0.000,0.000,0.000,-0.181,0.166,-177.812,289,230,227,230,229
14.813,1783037964.410,ARMED,move r+0.00 p+0.00 g+0.00 y+0.00,1.00,0.00,-1.00,0.000,0.000,0.000,0.000,0.000,0.000,0.000,0.000,-0.181,0.166,-177.812,289,230,227,230,229
14.846,1783037964.443,ARMED,move r+0.00 p+0.00 g+0.00 y+0.00,1.00,0.00,-1.00,0.000,0.000,0.000,0.000,0.000,0.000,0.000,0.000,-0.17,0.162,-177.81,279,232,229,231,231
14.880,1783037964.477,ARMED,move r+0.00 p+0.00 g+0.00 y+0.00,1.00,0.00,-1.00,0.000,0.000,0.000,0.000,0.000,0.000,0.000,0.000,-0.173,0.157,-177.806,292,226,223,226,225
14.914,1783037964.511,ARMED,move r+0.00 p+0.00 g+0.00 y+0.00,1.00,0.00,-1.00,0.000,0.000,0.000,0.000,0.000,0.000,0.000,0.000,-0.173,0.157,-177.806,292,226,223,226,225
14.948,1783037964.545,ARMED,move r+0.00 p+0.00 g+0.00 y+0.00,1.00,0.00,-1.00,0.000,0.000,0.000,0.000,0.000,0.000,0.000,0.000,-0.178,0.151,-177.805,277,230,227,230,229
14.982,1783037964.579,ARMED,move r+0.00 p+0.00 g+0.00 y+0.00,1.00,0.00,-1.00,0.000,0.000,0.000,0.000,0.000,0.000,0.000,0.000,-0.178,0.151,-177.805,277,230,227,230,229
15.016,1783037964.613,ARMED,move r+0.00 p+0.00 g+0.00 y+0.00,1.00,0.00,-1.00,0.000,0.000,0.000,0.000,0.000,0.000,0.000,0.000,-0.182,0.147,-177.803,282,228,224,227,227
15.050,1783037964.647,ARMED,move r+0.00 p+0.00 g+0.00 y+0.00,1.00,0.00,-1.00,0.000,0.000,0.000,0.000,0.000,0.000,0.000,0.000,-0.182,0.147,-177.803,282,228,224,227,227
15.084,1783037964.681,ARMED,move r+0.00 p+0.00 g+0.00 y+0.00,1.00,0.00,-1.00,0.000,0.000,0.000,0.000,0.000,0.000,0.000,0.000,-0.188,0.14,-177.801,282,228,225,228,228
15.118,1783037964.715,ARMED,move r+0.00 p+0.00 g+0.00 y+0.00,1.00,0.00,-1.00,0.000,0.000,0.000,0.000,0.000,0.000,0.000,0.000,-0.188,0.14,-177.801,282,228,225,228,228
15.152,1783037964.749,ARMED,move r+0.00 p+0.00 g+0.00 y+0.00,1.00,0.00,-1.00,0.000,0.000,0.000,0.000,0.000,0.000,0.000,0.000,-0.192,0.142,-177.799,286,227,224,227,226
15.185,1783037964.782,ARMED,move r+0.00 p+0.00 g+0.00 y+0.00,1.00,0.00,-1.00,0.000,0.000,0.000,0.000,0.000,0.000,0.000,0.000,-0.192,0.142,-177.799,286,227,224,227,226
15.218,1783037964.815,ARMED,move r+0.00 p+0.00 g+0.00 y+0.00,1.00,0.00,-1.00,0.000,0.000,0.000,0.000,0.000,0.000,0.000,0.000,-0.18,0.136,-177.797,302,223,220,223,222
15.253,1783037964.850,ARMED,move r+0.00 p+0.00 g+0.00 y+0.00,1.00,0.00,-1.00,0.000,0.000,0.000,0.000,0.000,0.000,0.000,0.000,-0.18,0.136,-177.797,302,223,220,223,222
15.287,1783037964.884,ARMED,move r+0.00 p+0.00 g+0.00 y+0.00,1.00,0.00,-1.00,0.000,0.000,0.000,0.000,0.000,0.000,0.000,0.000,-0.174,0.132,-177.794,282,230,227,230,230
15.321,1783037964.918,ARMED,move r+0.00 p+0.00 g+0.00 y+0.00,1.00,0.00,-1.00,0.000,0.000,0.000,0.000,0.000,0.000,0.000,0.000,-0.174,0.132,-177.794,282,230,227,230,230
