t,wall,seq,state,bat,roll_deg,pitch_deg,yaw_deg,alt_mm,m1,m2,m3,m4
0.065,1783037657.521,1418,2,44,0.104,-0.295,1.574,0,0,0,0,0
0.130,1783037657.586,1419,2,44,0.107,-0.302,1.573,0,0,0,0,0
0.198,1783037657.654,1420,2,44,0.104,-0.298,1.573,0,0,0,0,0
0.260,1783037657.716,1421,2,44,0.1,-0.302,1.572,0,0,0,0,0
0.325,1783037657.781,1422,2,44,0.096,-0.304,1.572,0,0,0,0,0
0.390,1783037657.846,1423,2,44,0.094,-0.3,1.572,0,0,0,0,0
0.456,1783037657.912,1424,2,44,0.105,-0.3,1.57,0,0,0,0,0
0.520,1783037657.976,1425,2,44,0.101,-0.291,1.57,0,0,0,0,0
0.586,1783037658.042,1426,2,44,0.112,-0.294,1.569,0,0,0,0,0
0.651,1783037658.107,1427,2,44,0.112,-0.288,1.571,0,0,0,0,0
0.716,1783037658.172,1428,2,44,0.115,-0.292,1.569,0,0,0,0,0
0.781,1783037658.237,1429,2,44,0.111,-0.3,1.569,0,0,0,0,0
0.846,1783037658.302,1430,2,44,0.117,-0.306,1.569,0,0,0,0,0
0.911,1783037658.367,1431,2,44,0.117,-0.312,1.571,0,0,0,0,0
0.976,1783037658.432,1432,2,44,0.109,-0.318,1.573,0,0,0,0,0
1.041,1783037658.497,1433,2,44,0.11,-0.323,1.576,0,0,0,0,0
1.107,1783037658.562,1434,2,44,0.108,-0.326,1.576,0,0,0,0,0
1.171,1783037658.627,1435,2,44,0.12,-0.328,1.577,0,0,0,0,0
1.236,1783037658.692,1436,2,44,0.117,-0.329,1.577,0,0,0,0,0
1.303,1783037658.759,1437,2,44,0.111,-0.322,1.577,0,0,0,0,0
1.367,1783037658.823,1438,2,44,0.107,-0.311,1.577,0,0,0,0,0
1.432,1783037658.888,1439,2,44,0.12,-0.305,1.577,0,0,0,0,0
1.497,1783037658.953,1440,2,44,0.121,-0.315,1.579,0,0,0,0,0
1.562,1783037659.018,1441,2,44,0.118,-0.317,1.58,0,0,0,0,0
1.627,1783037659.083,1442,2,44,0.115,-0.323,1.58,0,0,0,0,0
1.739,1783037659.195,1443,2,44,0.112,-0.319,1.58,0,0,0,0,0
1.757,1783037659.213,1444,2,44,0.118,-0.324,1.58,0,0,0,0,0
1.881,1783037659.337,1445,2,44,0.115,-0.315,1.579,0,0,0,0,0
1.928,1783037659.384,1446,2,44,0.109,-0.308,1.579,0,0,0,0,0
1.952,1783037659.408,1447,2,44,0.105,-0.298,1.578,0,0,0,0,0
2.042,1783037659.498,1448,2,44,0.098,-0.299,1.577,0,0,0,0,0
2.174,1783037659.630,1449,2,44,0.095,-0.297,1.576,0,0,0,0,0
2.175,1783037659.631,1450,2,44,0.089,-0.292,1.576,0,0,0,0,0
2.334,1783037659.790,1451,2,44,0.086,-0.301,1.577,0,0,0,0,0
2.334,1783037659.790,1452,2,44,0.083,-0.301,1.577,0,0,0,0,0
2.494,1783037659.950,1453,2,44,0.083,-0.308,1.579,0,0,0,0,0
2.495,1783037659.951,1454,2,44,0.087,-0.303,1.578,0,0,0,0,0
2.495,1783037659.951,1455,2,44,0.083,-0.296,1.578,0,0,0,0,0
2.553,1783037660.009,1456,2,44,0.083,-0.298,1.578,0,0,0,0,0
2.603,1783037660.059,1457,2,44,0.084,-0.302,1.578,0,0,0,0,0
2.668,1783037660.124,1458,2,44,0.09,-0.304,1.578,0,0,0,0,0
2.733,1783037660.189,1459,2,44,0.095,-0.309,1.577,0,0,0,0,0
2.798,1783037660.254,1460,2,44,0.096,-0.313,1.578,0,0,0,0,0
2.863,1783037660.319,1461,2,44,0.093,-0.319,1.576,0,0,0,0,0
2.930,1783037660.386,1462,2,44,0.098,-0.323,1.575,0,0,0,0,0
2.993,1783037660.449,1463,2,44,0.106,-0.318,1.576,0,0,0,0,0
3.059,1783037660.515,1464,2,44,0.097,-0.312,1.575,0,0,0,0,0
3.124,1783037660.580,1465,2,44,0.09,-0.302,1.576,0,0,0,0,0
3.189,1783037660.645,1466,2,44,0.085,-0.303,1.576,0,0,0,0,0
3.254,1783037660.710,1467,2,44,0.091,-0.295,1.576,0,0,0,0,0
3.319,1783037660.775,1468,2,44,0.086,-0.297,1.575,0,0,0,0,0
3.384,1783037660.840,1469,2,44,0.072,-0.271,1.575,0,0,0,0,0
3.449,1783037660.905,1470,2,44,0.05,-0.243,1.575,0,0,0,0,0
3.515,1783037660.971,1471,2,44,0.028,-0.217,1.574,0,0,0,0,0
3.580,1783037661.036,1472,2,44,0.018,-0.203,1.575,0,0,0,0,0
3.644,1783037661.100,1473,2,44,0.013,-0.192,1.575,0,0,0,0,0
3.710,1783037661.166,1474,2,44,0.01,-0.17,1.576,0,0,0,0,0
3.774,1783037661.230,1475,2,44,-0.006,-0.158,1.574,0,0,0,0,0
3.840,1783037661.296,1476,2,44,-0.015,-0.137,1.576,0,0,0,0,0
3.906,1783037661.362,1477,2,44,-0.022,-0.131,1.575,0,0,0,0,0
3.970,1783037661.426,1478,2,44,-0.034,-0.124,1.573,0,0,0,0,0
4.035,1783037661.491,1479,2,44,-0.044,-0.104,1.574,0,0,0,0,0
4.100,1783037661.556,1480,2,44,-0.05,-0.086,1.574,0,0,0,0,0
4.165,1783037661.621,1481,2,44,-0.066,-0.065,1.573,0,0,0,0,0
4.230,1783037661.686,1482,2,44,-0.079,-0.046,1.573,0,0,0,0,0
4.295,1783037661.751,1483,2,44,-0.082,-0.028,1.573,0,0,0,0,0
4.360,1783037661.816,1484,2,44,-0.092,-0.021,1.572,0,0,0,0,0
4.425,1783037661.881,1485,2,44,-0.095,-0.022,1.572,0,0,0,0,0
4.490,1783037661.946,1486,2,44,-0.083,-0.039,1.572,0,0,0,0,0
4.556,1783037662.012,1487,2,44,-0.07,-0.051,1.571,0,0,0,0,0
4.621,1783037662.077,1488,2,44,-0.058,-0.058,1.573,0,0,0,0,0
4.685,1783037662.141,1489,2,44,-0.048,-0.07,1.574,0,0,0,0,0
4.751,1783037662.207,1490,2,44,-0.038,-0.073,1.577,0,0,0,0,0
4.816,1783037662.272,1491,2,44,-0.031,-0.077,1.577,0,0,0,0,0
4.881,1783037662.337,1492,2,44,-0.024,-0.084,1.577,0,0,0,0,0
4.946,1783037662.402,1493,2,44,-0.008,-0.096,1.576,0,0,0,0,0
5.012,1783037662.468,1494,2,44,-0.003,-0.106,1.578,0,0,0,0,0
5.076,1783037662.532,1495,2,44,0.01,-0.12,1.577,0,0,0,0,0
5.141,1783037662.597,1496,2,44,0.013,-0.115,1.577,0,0,0,0,0
5.206,1783037662.662,1497,2,44,0.015,-0.115,1.578,0,0,0,0,0
5.271,1783037662.727,1498,2,44,0.019,-0.115,1.58,0,0,0,0,0
5.336,1783037662.792,1499,2,43,0.027,-0.123,1.579,0,0,0,0,0
5.401,1783037662.857,1500,2,43,0.028,-0.13,1.58,0,0,0,0,0
5.466,1783037662.922,1501,2,43,0.028,-0.141,1.582,0,0,0,0,0
5.531,1783037662.987,1502,2,43,0.032,-0.139,1.581,0,0,0,0,0
5.597,1783037663.053,1503,2,43,0.034,-0.146,1.581,0,0,0,0,0
5.662,1783037663.118,1504,2,43,0.046,-0.156,1.582,0,0,0,0,0
5.727,1783037663.183,1505,2,43,0.056,-0.16,1.581,0,0,0,0,0
5.792,1783037663.248,1506,2,43,0.06,-0.163,1.579,0,0,0,0,0
5.857,1783037663.313,1507,2,43,0.065,-0.178,1.578,0,0,0,0,0
5.922,1783037663.378,1508,2,43,0.069,-0.189,1.577,0,0,0,0,0
5.987,1783037663.443,1509,2,43,0.095,-0.208,1.577,0,0,0,0,0
6.052,1783037663.508,1510,2,43,0.114,-0.223,1.575,0,0,0,0,0
6.117,1783037663.573,1511,2,43,0.132,-0.242,1.577,0,0,0,0,0
6.183,1783037663.639,1512,2,43,0.143,-0.26,1.577,0,0,0,0,0
6.247,1783037663.703,1513,2,43,0.148,-0.275,1.576,0,0,0,0,0
6.313,1783037663.769,1514,2,43,0.165,-0.292,1.573,0,0,0,0,0
6.377,1783037663.833,1515,2,43,0.171,-0.303,1.574,0,0,0,0,0
6.444,1783037663.900,1516,2,43,0.178,-0.311,1.573,0,0,0,0,0
6.507,1783037663.963,1517,2,43,0.189,-0.319,1.571,0,0,0,0,0
6.575,1783037664.031,1518,2,43,0.199,-0.325,1.572,0,0,0,0,0
6.641,1783037664.097,1519,2,43,0.204,-0.332,1.571,0,0,0,0,0
6.703,1783037664.159,1520,2,43,0.217,-0.341,1.573,0,0,0,0,0
6.769,1783037664.225,1521,2,43,0.222,-0.347,1.573,0,0,0,0,0
6.833,1783037664.289,1522,2,43,0.233,-0.354,1.573,0,0,0,0,0
6.898,1783037664.354,1523,2,43,0.239,-0.359,1.575,0,0,0,0,0
6.963,1783037664.419,1524,2,43,0.245,-0.359,1.574,0,0,0,0,0
7.028,1783037664.484,1525,2,43,0.25,-0.363,1.576,0,0,0,0,0
7.093,1783037664.549,1526,2,43,0.254,-0.366,1.576,0,0,0,0,0
7.161,1783037664.617,1527,2,43,0.247,-0.369,1.579,0,0,0,0,0
7.224,1783037664.680,1528,2,43,0.247,-0.373,1.579,0,0,0,0,0
7.289,1783037664.745,1529,2,43,0.249,-0.376,1.579,0,0,0,0,0
7.354,1783037664.810,1530,2,43,0.243,-0.377,1.579,0,0,0,0,0
7.419,1783037664.875,1531,2,43,0.236,-0.379,1.579,0,0,0,0,0
7.484,1783037664.940,1532,2,43,0.228,-0.382,1.578,0,0,0,0,0
7.549,1783037665.005,1533,2,43,0.233,-0.386,1.579,0,0,0,0,0
7.614,1783037665.070,1534,2,43,0.227,-0.385,1.579,0,0,0,0,0
7.679,1783037665.135,1535,2,43,0.228,-0.38,1.579,0,0,0,0,0
7.744,1783037665.200,1536,2,43,0.222,-0.383,1.581,0,0,0,0,0
7.810,1783037665.266,1537,2,43,0.215,-0.381,1.581,0,0,0,0,0
7.874,1783037665.330,1538,2,43,0.207,-0.382,1.582,0,0,0,0,0
7.939,1783037665.395,1539,2,43,0.201,-0.386,1.581,0,0,0,0,0
8.005,1783037665.461,1540,2,43,0.199,-0.391,1.582,0,0,0,0,0
8.070,1783037665.526,1541,2,43,0.196,-0.396,1.581,0,0,0,0,0
8.135,1783037665.591,1542,2,43,0.191,-0.398,1.58,0,0,0,0,0
8.200,1783037665.656,1543,2,43,0.189,-0.387,1.582,0,0,0,0,0
8.265,1783037665.721,1544,2,43,0.199,-0.391,1.582,0,0,0,0,0
8.331,1783037665.787,1545,2,43,0.193,-0.393,1.584,0,0,0,0,0
8.395,1783037665.851,1546,2,43,0.187,-0.397,1.582,0,0,0,0,0
8.460,1783037665.916,1547,2,43,0.181,-0.399,1.583,0,0,0,0,0
8.525,1783037665.981,1548,2,43,0.176,-0.4,1.583,0,0,0,0,0
8.590,1783037666.046,1549,2,43,0.167,-0.401,1.58,0,0,0,0,0
8.655,1783037666.111,1550,2,43,0.161,-0.398,1.579,0,0,0,0,0
8.720,1783037666.176,1551,2,43,0.161,-0.402,1.577,0,0,0,0,0
8.786,1783037666.242,1552,2,43,0.156,-0.402,1.577,0,0,0,0,0
8.850,1783037666.306,1553,2,43,0.151,-0.398,1.579,0,0,0,0,0
8.916,1783037666.372,1554,2,43,0.148,-0.399,1.577,0,0,0,0,0
8.980,1783037666.436,1555,2,43,0.143,-0.403,1.577,0,0,0,0,0
9.045,1783037666.501,1556,2,43,0.135,-0.398,1.578,0,0,0,0,0
9.110,1783037666.566,1557,2,43,0.137,-0.4,1.577,0,0,0,0,0
9.176,1783037666.632,1558,2,43,0.145,-0.397,1.574,0,0,0,0,0
9.241,1783037666.697,1559,2,43,0.149,-0.399,1.575,0,0,0,0,0
9.306,1783037666.762,1560,2,43,0.145,-0.394,1.576,0,0,0,0,0
9.371,1783037666.827,1561,2,43,0.14,-0.391,1.576,0,0,0,0,0
9.439,1783037666.895,1562,2,43,0.146,-0.394,1.574,0,0,0,0,0
9.503,1783037666.959,1563,2,43,0.148,-0.399,1.575,0,0,0,0,0
9.566,1783037667.022,1564,2,43,0.146,-0.391,1.576,0,0,0,0,0
9.634,1783037667.090,1565,2,43,0.149,-0.378,1.575,0,0,0,0,0
9.698,1783037667.154,1566,2,43,0.145,-0.379,1.578,0,0,0,0,0
9.762,1783037667.218,1567,2,43,0.137,-0.371,1.576,0,0,0,0,0
9.829,1783037667.285,1568,2,43,0.145,-0.366,1.576,0,0,0,0,0
9.892,1783037667.348,1569,2,43,0.144,-0.363,1.575,0,0,0,0,0
9.957,1783037667.413,1570,2,43,0.146,-0.358,1.576,0,0,0,0,0
10.022,1783037667.478,1571,2,43,0.142,-0.353,1.575,0,0,0,0,0
10.087,1783037667.543,1572,2,43,0.139,-0.361,1.573,0,0,0,0,0
10.152,1783037667.608,1573,2,43,0.147,-0.369,1.573,0,0,0,0,0
10.217,1783037667.673,1574,2,43,0.142,-0.361,1.572,0,0,0,0,0
10.282,1783037667.738,1575,2,43,0.132,-0.366,1.573,0,0,0,0,0
10.347,1783037667.803,1576,2,43,0.128,-0.36,1.573,0,0,0,0,0
10.412,1783037667.868,1577,2,43,0.123,-0.346,1.574,0,0,0,0,0
10.478,1783037667.934,1578,2,43,0.114,-0.341,1.577,0,0,0,0,0
10.542,1783037667.998,1579,2,43,0.113,-0.334,1.577,0,0,0,0,0
10.643,1783037668.099,1580,2,43,0.097,-0.326,1.576,0,0,0,0,0
10.686,1783037668.142,1581,2,43,0.084,-0.317,1.575,0,0,0,0,0
10.738,1783037668.194,1582,2,43,0.072,-0.307,1.576,0,0,0,0,0
10.803,1783037668.259,1583,2,43,0.068,-0.301,1.576,0,0,0,0,0
10.868,1783037668.324,1584,2,43,0.059,-0.294,1.574,0,0,0,0,0
10.994,1783037668.450,1585,2,43,0.056,-0.291,1.571,0,0,0,0,0
11.000,1783037668.456,1586,2,43,0.034,-0.291,1.568,0,0,0,0,0
11.167,1783037668.623,1587,2,43,0.011,-0.275,1.572,0,0,0,0,0
11.169,1783037668.625,1588,2,43,0.002,-0.263,1.575,0,0,0,0,0
11.193,1783037668.649,1589,2,43,-0.002,-0.261,1.574,0,0,0,0,0
11.266,1783037668.722,1590,2,43,0.006,-0.265,1.576,0,0,0,0,0
11.325,1783037668.781,1591,2,43,0.011,-0.255,1.577,0,0,0,0,0
11.453,1783037668.909,1592,2,43,0.01,-0.252,1.576,0,0,0,0,0
11.454,1783037668.910,1593,2,43,0.02,-0.259,1.575,0,0,0,0,0
11.521,1783037668.977,1594,2,43,0.022,-0.256,1.577,0,0,0,0,0
11.583,1783037669.039,1595,2,43,0.02,-0.249,1.576,0,0,0,0,0
11.648,1783037669.104,1596,2,43,0.02,-0.251,1.576,0,0,0,0,0
11.763,1783037669.219,1597,2,43,0.022,-0.254,1.575,0,0,0,0,0
11.785,1783037669.241,1598,2,43,0.023,-0.257,1.578,0,0,0,0,0
11.861,1783037669.317,1599,2,43,0.024,-0.254,1.577,0,0,0,0,0
11.913,1783037669.369,1600,2,43,0.023,-0.255,1.577,0,0,0,0,0
12.036,1783037669.492,1601,2,43,0.03,-0.263,1.578,0,0,0,0,0
12.040,1783037669.496,1602,2,43,0.03,-0.267,1.578,0,0,0,0,0
12.120,1783037669.576,1603,2,43,0.029,-0.264,1.577,0,0,0,0,0
12.170,1783037669.626,1604,2,43,0.026,-0.258,1.577,0,0,0,0,0
12.234,1783037669.690,1605,2,43,0.024,-0.26,1.576,0,0,0,0,0
12.299,1783037669.755,1606,2,43,0.02,-0.255,1.577,0,0,0,0,0
12.364,1783037669.820,1607,2,44,0.017,-0.257,1.577,0,0,0,0,0
12.429,1783037669.885,1608,2,44,0.01,-0.251,1.575,0,0,0,0,0
12.494,1783037669.950,1609,2,44,0.01,-0.247,1.574,0,0,0,0,0
12.559,1783037670.015,1610,2,44,0.011,-0.241,1.574,0,0,0,0,0
12.624,1783037670.080,1611,2,44,0.01,-0.238,1.573,0,0,0,0,0
12.691,1783037670.147,1612,2,44,0.009,-0.234,1.573,0,0,0,0,0
12.754,1783037670.210,1613,2,44,0.01,-0.233,1.574,0,0,0,0,0
12.820,1783037670.276,1614,2,44,0.013,-0.232,1.575,0,0,0,0,0
12.887,1783037670.343,1615,2,44,0.011,-0.227,1.575,0,0,0,0,0
12.950,1783037670.406,1616,2,44,0.001,-0.223,1.574,0,0,0,0,0
13.015,1783037670.471,1617,2,44,0.003,-0.224,1.574,0,0,0,0,0
13.080,1783037670.536,1618,2,44,0.002,-0.217,1.577,0,0,0,0,0
13.145,1783037670.601,1619,2,44,0.001,-0.21,1.577,0,0,0,0,0
13.210,1783037670.666,1620,2,44,0.003,-0.209,1.576,0,0,0,0,0
13.275,1783037670.731,1621,2,44,0.003,-0.215,1.574,0,0,0,0,0
13.340,1783037670.796,1622,2,44,0.003,-0.212,1.575,0,0,0,0,0
13.407,1783037670.863,1623,2,44,0.01,-0.22,1.575,0,0,0,0,0
13.470,1783037670.926,1624,2,44,0.012,-0.227,1.576,0,0,0,0,0
13.535,1783037670.991,1625,2,44,0.013,-0.234,1.575,0,0,0,0,0
13.601,1783037671.057,1626,2,44,0.024,-0.239,1.573,0,0,0,0,0
13.666,1783037671.122,1627,2,44,0.025,-0.239,1.573,0,0,0,0,0
13.732,1783037671.188,1628,2,44,0.026,-0.243,1.573,0,0,0,0,0
13.796,1783037671.252,1629,2,44,0.025,-0.245,1.573,0,0,0,0,0
13.861,1783037671.317,1630,2,44,0.024,-0.24,1.576,0,0,0,0,0
13.926,1783037671.382,1631,2,44,0.022,-0.235,1.574,0,0,0,0,0
13.991,1783037671.447,1632,2,44,0.021,-0.24,1.573,0,0,0,0,0
14.056,1783037671.512,1633,2,44,0.02,-0.246,1.573,0,0,0,0,0
14.124,1783037671.580,1634,2,44,0.018,-0.241,1.573,0,0,0,0,0
14.186,1783037671.642,1635,2,44,0.018,-0.246,1.573,0,0,0,0,0
14.251,1783037671.707,1636,2,44,0.018,-0.241,1.571,0,0,0,0,0
14.317,1783037671.773,1637,2,44,0.017,-0.232,1.571,0,0,0,0,0
14.382,1783037671.838,1638,2,44,0.016,-0.231,1.571,0,0,0,0,0
14.446,1783037671.902,1639,2,44,0.013,-0.231,1.571,0,0,0,0,0
14.511,1783037671.967,1640,2,44,0.014,-0.223,1.57,0,0,0,0,0
14.577,1783037672.033,1641,2,44,0.014,-0.224,1.571,0,0,0,0,0
14.642,1783037672.097,1642,2,44,0.022,-0.222,1.568,0,0,0,0,0
14.706,1783037672.162,1643,2,44,0.02,-0.215,1.569,0,0,0,0,0
14.772,1783037672.228,1644,2,44,0.017,-0.207,1.57,0,0,0,0,0
14.837,1783037672.293,1645,2,44,0.016,-0.2,1.571,0,0,0,0,0
14.902,1783037672.358,1646,2,44,0.01,-0.198,1.57,0,0,0,0,0
14.967,1783037672.423,1647,2,44,0.009,-0.199,1.571,0,0,0,0,0
15.033,1783037672.489,1648,2,44,0.009,-0.195,1.571,0,0,0,0,0
15.097,1783037672.553,1649,2,44,0.009,-0.19,1.573,0,0,0,0,0
15.162,1783037672.618,1650,2,44,0.009,-0.199,1.572,0,0,0,0,0
15.227,1783037672.683,1651,2,44,0.009,-0.192,1.573,0,0,0,0,0
15.292,1783037672.748,1652,2,44,0.007,-0.197,1.572,0,0,0,0,0
15.357,1783037672.813,1653,2,44,0.006,-0.192,1.572,0,0,0,0,0
15.422,1783037672.878,1654,2,44,0.007,-0.182,1.573,0,0,0,0,0
15.487,1783037672.943,1655,2,44,0.006,-0.175,1.575,0,0,0,0,0
15.553,1783037673.009,1656,2,44,0.006,-0.169,1.574,0,0,0,0,0
15.618,1783037673.074,1657,2,44,0.011,-0.166,1.574,0,0,0,0,0
15.683,1783037673.139,1658,2,44,0.012,-0.16,1.573,0,0,0,0,0
15.750,1783037673.206,1659,2,44,0.012,-0.164,1.572,0,0,0,0,0
15.813,1783037673.269,1660,2,44,0.012,-0.176,1.574,0,0,0,0,0
15.878,1783037673.334,1661,2,44,0.011,-0.178,1.575,0,0,0,0,0
15.945,1783037673.400,1662,2,44,0.012,-0.171,1.578,0,0,0,0,0
16.008,1783037673.464,1663,2,44,0.019,-0.171,1.58,0,0,0,0,0
16.073,1783037673.529,1664,2,44,0.027,-0.178,1.58,0,0,0,0,0
16.138,1783037673.594,1665,2,44,0.032,-0.181,1.578,0,0,0,0,0
16.204,1783037673.660,1666,2,44,0.037,-0.187,1.579,0,0,0,0,0
16.269,1783037673.725,1667,2,44,0.042,-0.198,1.578,0,0,0,0,0
16.334,1783037673.790,1668,2,44,0.041,-0.207,1.578,0,0,0,0,0
16.398,1783037673.854,1669,2,44,0.037,-0.202,1.578,0,0,0,0,0
16.464,1783037673.920,1670,2,44,0.034,-0.194,1.579,0,0,0,0,0
16.529,1783037673.985,1671,2,44,0.033,-0.188,1.578,0,0,0,0,0
16.594,1783037674.050,1672,2,44,0.031,-0.192,1.578,0,0,0,0,0
16.659,1783037674.115,1673,2,44,0.031,-0.188,1.578,0,0,0,0,0
16.724,1783037674.180,1674,2,44,0.033,-0.189,1.582,0,0,0,0,0
16.789,1783037674.245,1675,2,44,0.033,-0.188,1.581,0,0,0,0,0
16.854,1783037674.310,1676,2,44,0.031,-0.199,1.582,0,0,0,0,0
16.919,1783037674.375,1677,2,44,0.03,-0.209,1.582,0,0,0,0,0
16.985,1783037674.441,1678,2,44,0.031,-0.211,1.582,0,0,0,0,0
17.049,1783037674.505,1679,2,44,0.031,-0.217,1.58,0,0,0,0,0
17.116,1783037674.572,1680,2,44,0.031,-0.213,1.581,0,0,0,0,0
17.179,1783037674.635,1681,2,44,0.028,-0.205,1.584,0,0,0,0,0
17.245,1783037674.701,1682,2,44,0.032,-0.202,1.584,0,0,0,0,0
17.310,1783037674.765,1683,2,44,0.03,-0.2,1.584,0,0,0,0,0
17.375,1783037674.831,1684,2,44,0.028,-0.192,1.585,0,0,0,0,0
17.440,1783037674.896,1685,2,44,0.025,-0.191,1.585,0,0,0,0,0
17.505,1783037674.961,1686,2,44,0.026,-0.186,1.584,0,0,0,0,0
17.571,1783037675.027,1687,2,44,0.026,-0.181,1.585,0,0,0,0,0
17.636,1783037675.092,1688,2,44,0.026,-0.176,1.583,0,0,0,0,0
17.702,1783037675.158,1689,2,44,0.024,-0.171,1.585,0,0,0,0,0
17.765,1783037675.221,1690,2,44,0.024,-0.163,1.586,0,0,0,0,0
17.830,1783037675.286,1691,2,44,0.022,-0.155,1.587,0,0,0,0,0
17.895,1783037675.351,1692,2,44,0.02,-0.149,1.588,0,0,0,0,0
17.960,1783037675.416,1693,2,44,0.02,-0.143,1.588,0,0,0,0,0
18.025,1783037675.481,1694,2,44,0.021,-0.138,1.588,0,0,0,0,0
18.090,1783037675.546,1695,2,44,0.02,-0.133,1.587,0,0,0,0,0
18.155,1783037675.611,1696,2,44,0.02,-0.128,1.586,0,0,0,0,0
18.220,1783037675.676,1697,2,44,0.018,-0.125,1.588,0,0,0,0,0
18.286,1783037675.742,1698,2,44,0.014,-0.122,1.587,0,0,0,0,0
18.351,1783037675.807,1699,2,44,0.012,-0.118,1.587,0,0,0,0,0
18.417,1783037675.872,1700,2,44,0.013,-0.113,1.587,0,0,0,0,0
18.480,1783037675.936,1701,2,44,0.012,-0.111,1.587,0,0,0,0,0
18.546,1783037676.002,1702,2,44,0.012,-0.115,1.588,0,0,0,0,0
18.611,1783037676.067,1703,2,44,0.008,-0.116,1.588,0,0,0,0,0
18.676,1783037676.132,1704,2,44,0.009,-0.112,1.588,0,0,0,0,0
18.741,1783037676.197,1705,2,44,0.006,-0.107,1.589,0,0,0,0,0
18.806,1783037676.262,1706,2,44,0.006,-0.106,1.59,0,0,0,0,0
18.871,1783037676.327,1707,2,44,0.007,-0.104,1.588,0,0,0,0,0
18.939,1783037676.395,1708,2,44,0.012,-0.099,1.588,0,0,0,0,0
19.002,1783037676.458,1709,2,44,0.013,-0.094,1.589,0,0,0,0,0
19.066,1783037676.522,1710,2,44,0.015,-0.099,1.589,0,0,0,0,0
19.135,1783037676.591,1711,2,44,0.02,-0.111,1.591,0,0,0,0,0
19.198,1783037676.654,1712,2,44,0.021,-0.125,1.593,0,0,0,0,0
19.262,1783037676.718,1713,2,44,0.024,-0.138,1.594,0,0,0,0,0
19.327,1783037676.783,1714,2,44,0.026,-0.139,1.594,0,0,0,0,0
19.392,1783037676.848,1715,2,44,0.039,-0.143,1.593,0,0,0,0,0
19.457,1783037676.913,1716,2,44,0.053,-0.142,1.595,0,0,0,0,0
19.522,1783037676.978,1717,2,44,0.051,-0.137,1.596,0,0,0,0,0
19.587,1783037677.043,1718,2,44,0.054,-0.132,1.597,0,0,0,0,0
19.654,1783037677.110,1719,2,44,0.055,-0.132,1.598,0,0,0,0,0
19.717,1783037677.173,1720,2,44,0.056,-0.141,1.597,0,0,0,0,0
19.782,1783037677.238,1721,2,44,0.053,-0.137,1.6,0,0,0,0,0
19.849,1783037677.305,1722,2,44,0.05,-0.133,1.599,0,0,0,0,0
19.913,1783037677.369,1723,2,44,0.048,-0.135,1.6,0,0,0,0,0
19.980,1783037677.436,1724,2,44,0.047,-0.132,1.6,0,0,0,0,0
20.043,1783037677.499,1725,2,44,0.049,-0.135,1.599,0,0,0,0,0
20.108,1783037677.563,1726,2,44,0.053,-0.141,1.601,0,0,0,0,0
20.173,1783037677.628,1727,2,44,0.058,-0.152,1.601,0,0,0,0,0
20.238,1783037677.694,1728,2,44,0.056,-0.16,1.601,0,0,0,0,0
20.303,1783037677.759,1729,2,44,0.056,-0.17,1.603,0,0,0,0,0
20.371,1783037677.827,1730,2,44,0.06,-0.171,1.606,0,0,0,0,0
20.433,1783037677.889,1731,2,44,0.056,-0.165,1.608,0,0,0,0,0
20.498,1783037677.954,1732,2,44,0.054,-0.159,1.607,0,0,0,0,0
20.563,1783037678.019,1733,2,44,0.052,-0.154,1.606,0,0,0,0,0
20.628,1783037678.084,1734,2,44,0.051,-0.149,1.607,0,0,0,0,0
20.931,1783037678.387,1735,2,44,0.049,-0.15,1.608,0,0,0,0,0
20.932,1783037678.388,1736,2,44,0.048,-0.147,1.609,0,0,0,0,0
20.932,1783037678.388,1737,2,44,0.046,-0.146,1.611,0,0,0,0,0
20.953,1783037678.409,1739,2,44,0.045,-0.154,1.612,0,0,0,0,0
21.141,1783037678.597,1740,2,44,0.043,-0.156,1.611,0,0,0,0,0
21.142,1783037678.598,1741,2,44,0.043,-0.151,1.611,0,0,0,0,0
21.149,1783037678.605,1742,2,44,0.044,-0.147,1.61,0,0,0,0,0
21.239,1783037678.695,1743,2,44,0.046,-0.149,1.608,0,0,0,0,0
21.279,1783037678.735,1744,2,44,0.043,-0.159,1.607,0,0,0,0,0
21.444,1783037678.900,1745,2,44,0.043,-0.155,1.609,0,0,0,0,0
21.445,1783037678.901,1746,2,44,0.043,-0.148,1.609,0,0,0,0,0
21.474,1783037678.930,1747,2,44,0.044,-0.142,1.61,0,0,0,0,0
21.609,1783037679.065,1748,2,44,0.046,-0.154,1.612,0,0,0,0,0
21.610,1783037679.066,1749,2,44,0.052,-0.154,1.612,0,0,0,0,0
21.669,1783037679.125,1750,2,44,0.052,-0.166,1.613,0,0,0,0,0
21.853,1783037679.309,1751,2,44,0.05,-0.168,1.614,0,0,0,0,0
21.854,1783037679.310,1752,2,44,0.047,-0.172,1.614,0,0,0,0,0
21.864,1783037679.320,1753,2,44,0.043,-0.17,1.613,0,0,0,0,0
21.955,1783037679.411,1754,2,44,0.045,-0.174,1.613,0,0,0,0,0
21.998,1783037679.454,1755,2,44,0.043,-0.184,1.613,0,0,0,0,0
22.365,1783037679.821,1756,2,44,0.047,-0.181,1.615,0,0,0,0,0
22.366,1783037679.822,1757,2,44,0.058,-0.186,1.616,0,0,0,0,0
22.366,1783037679.822,1758,2,44,0.057,-0.191,1.616,0,0,0,0,0
22.385,1783037679.841,1761,2,44,0.059,-0.2,1.616,0,0,0,0,0
22.467,1783037679.923,1762,2,44,0.055,-0.192,1.618,0,0,0,0,0
22.515,1783037679.971,1763,2,44,0.05,-0.185,1.618,0,0,0,0,0
22.610,1783037680.066,1764,2,44,0.055,-0.193,1.618,0,0,0,0,0
22.645,1783037680.101,1765,2,44,0.066,-0.196,1.62,0,0,0,0,0
22.711,1783037680.167,1766,2,44,0.072,-0.197,1.621,0,0,0,0,0
22.878,1783037680.334,1767,2,44,0.086,-0.201,1.62,0,0,0,0,0
22.878,1783037680.334,1768,2,44,0.095,-0.195,1.621,0,0,0,0,0
22.906,1783037680.362,1769,2,44,0.101,-0.191,1.621,0,0,0,0,0
23.287,1783037680.743,1770,2,44,0.1,-0.183,1.623,0,0,0,0,0
23.288,1783037680.743,1771,2,44,0.096,-0.186,1.622,0,0,0,0,0
23.288,1783037680.744,1772,2,44,0.092,-0.18,1.622,0,0,0,0,0
23.296,1783037680.752,1775,2,44,0.097,-0.18,1.622,0,0,0,0,0
23.389,1783037680.845,1776,2,44,0.104,-0.174,1.623,0,0,0,0,0
23.426,1783037680.882,1777,2,44,0.109,-0.174,1.623,0,0,0,0,0
23.594,1783037681.050,1778,2,44,0.119,-0.173,1.622,0,0,0,0,0
23.595,1783037681.051,1779,2,44,0.127,-0.18,1.623,0,0,0,0,0
23.622,1783037681.078,1780,2,44,0.129,-0.175,1.623,0,0,0,0,0
23.800,1783037681.256,1781,2,44,0.127,-0.179,1.623,0,0,0,0,0
23.800,1783037681.256,1782,2,44,0.128,-0.19,1.625,0,0,0,0,0
23.817,1783037681.273,1783,2,44,0.126,-0.194,1.625,0,0,0,0,0
23.901,1783037681.357,1784,2,44,0.128,-0.187,1.626,0,0,0,0,0
23.947,1783037681.403,1785,2,44,0.137,-0.181,1.628,0,0,0,0,0
24.106,1783037681.562,1786,2,44,0.135,-0.191,1.628,0,0,0,0,0
24.107,1783037681.563,1787,2,44,0.13,-0.196,1.627,0,0,0,0,0
24.142,1783037681.598,1788,2,44,0.127,-0.188,1.627,0,0,0,0,0
24.311,1783037681.767,1789,2,44,0.133,-0.191,1.628,0,0,0,0,0
24.312,1783037681.768,1790,2,44,0.145,-0.199,1.628,0,0,0,0,0
24.337,1783037681.793,1791,2,44,0.154,-0.199,1.627,0,0,0,0,0
24.516,1783037681.972,1792,2,44,0.159,-0.198,1.627,0,0,0,0,0
24.517,1783037681.973,1793,2,44,0.168,-0.206,1.627,0,0,0,0,0
24.532,1783037681.988,1794,2,44,0.172,-0.213,1.627,0,0,0,0,0
24.823,1783037682.279,1795,2,44,0.176,-0.211,1.627,0,0,0,0,0
24.823,1783037682.279,1796,2,44,0.187,-0.222,1.626,0,0,0,0,0
24.824,1783037682.279,1797,2,44,0.196,-0.232,1.628,0,0,0,0,0
24.858,1783037682.314,1799,2,44,0.215,-0.239,1.631,0,0,0,0,0
25.363,1783037682.819,1800,2,44,0.218,-0.248,1.63,0,0,0,0,0
25.364,1783037682.820,1801,2,44,0.222,-0.238,1.631,0,0,0,0,0
25.364,1783037682.820,1802,2,44,0.221,-0.238,1.631,0,0,0,0,0
25.380,1783037682.836,1807,2,44,0.255,-0.234,1.633,0,0,0,0,0
25.444,1783037682.900,1808,2,44,0.258,-0.227,1.633,0,0,0,0,0
25.509,1783037682.965,1809,2,44,0.264,-0.225,1.634,0,0,0,0,0
25.575,1783037683.031,1810,2,44,0.256,-0.223,1.635,0,0,0,0,0
25.639,1783037683.095,1811,2,44,0.246,-0.222,1.635,0,0,0,0,0
25.744,1783037683.200,1812,2,44,0.237,-0.217,1.636,0,0,0,0,0
25.769,1783037683.225,1813,2,44,0.238,-0.218,1.636,0,0,0,0,0
25.846,1783037683.302,1814,2,44,0.24,-0.209,1.634,0,0,0,0,0
25.900,1783037683.356,1815,2,44,0.243,-0.213,1.634,0,0,0,0,0
26.057,1783037683.513,1817,2,44,0.242,-0.223,1.636,0,0,0,0,0
26.095,1783037683.551,1818,2,44,0.233,-0.22,1.636,0,0,0,0,0
26.257,1783037683.713,1819,2,44,0.228,-0.22,1.637,0,0,0,0,0
26.257,1783037683.713,1820,2,44,0.226,-0.229,1.637,0,0,0,0,0
26.290,1783037683.746,1821,2,44,0.237,-0.238,1.637,0,0,0,0,0
26.563,1783037684.019,1822,2,44,0.234,-0.24,1.637,0,0,0,0,0
26.564,1783037684.020,1823,2,45,0.237,-0.232,1.636,0,0,0,0,0
26.564,1783037684.020,1824,2,45,0.23,-0.223,1.634,0,0,0,0,0
26.617,1783037684.073,1826,2,45,0.246,-0.235,1.636,0,0,0,0,0
26.769,1783037684.224,1827,2,45,0.252,-0.242,1.636,0,0,0,0,0
26.769,1783037684.225,1828,2,45,0.258,-0.251,1.638,0,0,0,0,0
26.812,1783037684.268,1829,2,45,0.263,-0.253,1.638,0,0,0,0,0
26.973,1783037684.429,1830,2,45,0.262,-0.25,1.638,0,0,0,0,0
26.974,1783037684.430,1831,2,45,0.264,-0.254,1.639,0,0,0,0,0
27.006,1783037684.462,1832,2,45,0.268,-0.253,1.64,0,0,0,0,0
27.178,1783037684.634,1833,2,45,0.275,-0.262,1.641,0,0,0,0,0
27.179,1783037684.635,1834,2,45,0.276,-0.268,1.643,0,0,0,0,0
27.201,1783037684.657,1835,2,45,0.271,-0.272,1.642,0,0,0,0,0
27.280,1783037684.736,1836,2,45,0.279,-0.274,1.644,0,0,0,0,0
27.334,1783037684.790,1837,2,45,0.281,-0.281,1.645,0,0,0,0,0
27.396,1783037684.852,1838,2,45,0.272,-0.27,1.646,0,0,0,0,0
27.694,1783037685.149,1840,2,45,0.259,-0.268,1.646,0,0,0,0,0
27.694,1783037685.150,1841,2,45,0.256,-0.278,1.645,0,0,0,0,0
27.694,1783037685.150,1842,2,45,0.249,-0.272,1.647,0,0,0,0,0
27.721,1783037685.177,1843,2,45,0.246,-0.273,1.646,0,0,0,0,0
27.896,1783037685.352,1844,2,45,0.242,-0.265,1.647,0,0,0,0,0
27.897,1783037685.353,1845,2,45,0.238,-0.257,1.647,0,0,0,0,0
27.916,1783037685.372,1846,2,45,0.231,-0.249,1.647,0,0,0,0,0
27.997,1783037685.453,1847,2,45,0.222,-0.24,1.648,0,0,0,0,0
28.047,1783037685.503,1848,2,45,0.218,-0.231,1.649,0,0,0,0,0
28.112,1783037685.568,1849,2,45,0.211,-0.224,1.651,0,0,0,0,0
28.178,1783037685.634,1850,2,45,0.208,-0.213,1.651,0,0,0,0,0
28.304,1783037685.760,1851,2,45,0.205,-0.217,1.653,0,0,0,0,0
28.307,1783037685.763,1852,2,45,0.203,-0.22,1.654,0,0,0,0,0
28.406,1783037685.862,1853,2,45,0.212,-0.231,1.656,0,0,0,0,0
28.437,1783037685.893,1854,2,45,0.214,-0.234,1.655,0,0,0,0,0
28.612,1783037686.068,1855,2,45,0.214,-0.233,1.658,0,0,0,0,0
28.613,1783037686.069,1856,2,45,0.216,-0.226,1.66,0,0,0,0,0
28.632,1783037686.088,1857,2,45,0.216,-0.226,1.66,0,0,0,0,0
28.697,1783037686.153,1858,2,45,0.21,-0.223,1.661,0,0,0,0,0
28.789,1783037686.245,1859,2,45,0.205,-0.226,1.661,0,0,0,0,0
28.828,1783037686.283,1860,2,45,0.2,-0.233,1.663,0,0,0,0,0
28.919,1783037686.375,1861,2,45,0.191,-0.241,1.664,0,0,0,0,0
28.960,1783037686.416,1862,2,45,0.188,-0.249,1.666,0,0,0,0,0
29.124,1783037686.580,1863,2,45,0.184,-0.256,1.667,0,0,0,0,0
29.125,1783037686.581,1864,2,45,0.178,-0.264,1.665,0,0,0,0,0
29.153,1783037686.609,1865,2,45,0.176,-0.271,1.666,0,0,0,0,0
29.329,1783037686.785,1866,2,45,0.172,-0.271,1.666,0,0,0,0,0
29.330,1783037686.786,1867,2,45,0.166,-0.268,1.667,0,0,0,0,0
29.348,1783037686.804,1868,2,45,0.159,-0.26,1.667,0,0,0,0,0
29.430,1783037686.886,1869,2,45,0.156,-0.265,1.667,0,0,0,0,0
29.478,1783037686.934,1870,2,45,0.152,-0.268,1.668,0,0,0,0,0
29.543,1783037686.999,1871,2,45,0.15,-0.261,1.667,0,0,0,0,0
29.608,1783037687.064,1872,2,45,0.151,-0.259,1.67,0,0,0,0,0
29.710,1783037687.166,1873,2,45,0.149,-0.257,1.667,0,0,0,0,0
29.739,1783037687.195,1874,2,45,0.143,-0.263,1.668,0,0,0,0,0
29.803,1783037687.259,1875,2,45,0.138,-0.253,1.668,0,0,0,0,0
29.943,1783037687.399,1876,2,45,0.134,-0.252,1.67,0,0,0,0,0
29.944,1783037687.400,1877,2,45,0.131,-0.247,1.67,0,0,0,0,0
29.999,1783037687.455,1878,2,45,0.128,-0.244,1.67,0,0,0,0,0
30.252,1783037687.708,1879,2,45,0.123,-0.251,1.672,0,0,0,0,0
30.253,1783037687.709,1880,2,45,0.118,-0.253,1.672,0,0,0,0,0
30.254,1783037687.710,1881,2,45,0.118,-0.261,1.673,0,0,0,0,0
30.259,1783037687.715,1882,2,45,0.115,-0.268,1.673,0,0,0,0,0
30.352,1783037687.808,1883,2,45,0.109,-0.263,1.674,0,0,0,0,0
30.389,1783037687.845,1884,2,45,0.103,-0.254,1.674,0,0,0,0,0
30.454,1783037687.910,1885,2,44,0.099,-0.252,1.677,0,0,0,0,0
30.558,1783037688.013,1886,2,44,0.094,-0.245,1.674,0,0,0,0,0
30.585,1783037688.041,1887,2,44,0.091,-0.237,1.674,0,0,0,0,0
30.715,1783037688.171,1888,2,44,0.086,-0.23,1.674,0,0,0,0,0
30.716,1783037688.172,1889,2,44,0.084,-0.223,1.676,0,0,0,0,0
30.791,1783037688.247,1890,2,44,0.083,-0.22,1.676,0,0,0,0,0
30.844,1783037688.300,1891,2,44,0.084,-0.222,1.678,0,0,0,0,0
30.967,1783037688.423,1892,2,44,0.086,-0.226,1.678,0,0,0,0,0
30.975,1783037688.430,1893,2,44,0.081,-0.219,1.68,0,0,0,0,0
31.040,1783037688.496,1894,2,44,0.079,-0.217,1.681,0,0,0,0,0
31.172,1783037688.628,1895,2,44,0.076,-0.208,1.682,0,0,0,0,0
31.172,1783037688.628,1896,2,44,0.078,-0.215,1.684,0,0,0,0,0
31.274,1783037688.729,1897,2,44,0.076,-0.217,1.684,0,0,0,0,0
31.300,1783037688.756,1898,2,44,0.075,-0.22,1.684,0,0,0,0,0
31.365,1783037688.821,1899,2,44,0.072,-0.221,1.684,0,0,0,0,0
31.480,1783037688.936,1900,2,44,0.069,-0.216,1.684,0,0,0,0,0
31.495,1783037688.951,1901,2,44,0.066,-0.21,1.683,0,0,0,0,0
31.581,1783037689.037,1902,2,44,0.065,-0.203,1.685,0,0,0,0,0
31.627,1783037689.082,1903,2,44,0.063,-0.202,1.685,0,0,0,0,0
31.778,1783037689.234,1904,2,44,0.061,-0.204,1.687,0,0,0,0,0
31.779,1783037689.235,1905,2,44,0.06,-0.205,1.688,0,0,0,0,0
31.821,1783037689.277,1906,2,44,0.057,-0.2,1.688,0,0,0,0,0
31.991,1783037689.447,1907,2,44,0.047,-0.187,1.689,0,0,0,0,0
31.991,1783037689.447,1908,2,44,0.038,-0.181,1.691,0,0,0,0,0
32.016,1783037689.472,1909,2,44,0.034,-0.176,1.693,0,0,0,0,0
32.093,1783037689.549,1910,2,44,0.021,-0.17,1.693,0,0,0,0,0
32.147,1783037689.602,1911,2,44,0.013,-0.161,1.694,0,0,0,0,0
32.298,1783037689.754,1912,2,44,0.013,-0.155,1.692,0,0,0,0,0
32.299,1783037689.755,1913,2,44,0.012,-0.15,1.693,0,0,0,0,0
32.343,1783037689.799,1914,2,44,0.009,-0.144,1.692,0,0,0,0,0
32.406,1783037689.862,1915,2,44,0.009,-0.141,1.695,0,0,0,0,0
32.503,1783037689.959,1916,2,44,0.01,-0.137,1.694,0,0,0,0,0
32.536,1783037689.992,1917,2,44,0.01,-0.132,1.695,0,0,0,0,0
32.708,1783037690.164,1918,2,44,0.009,-0.131,1.697,0,0,0,0,0
32.709,1783037690.165,1919,2,44,0.011,-0.133,1.698,0,0,0,0,0
32.732,1783037690.188,1920,2,44,0.01,-0.128,1.697,0,0,0,0,0
32.797,1783037690.253,1921,2,44,0.012,-0.131,1.7,0,0,0,0,0
32.863,1783037690.319,1922,2,44,0.01,-0.143,1.703,0,0,0,0,0
33.019,1783037690.475,1923,2,44,0.009,-0.142,1.703,0,0,0,0,0
33.019,1783037690.475,1924,2,44,0.009,-0.149,1.702,0,0,0,0,0
33.060,1783037690.516,1925,2,44,0.012,-0.151,1.702,0,0,0,0,0
33.220,1783037690.676,1926,2,44,0.011,-0.147,1.704,0,0,0,0,0
33.221,1783037690.677,1927,2,44,0.011,-0.144,1.704,0,0,0,0,0
33.252,1783037690.708,1928,2,44,0.01,-0.137,1.704,0,0,0,0,0
33.425,1783037690.881,1929,2,44,0.01,-0.133,1.703,0,0,0,0,0
33.426,1783037690.882,1930,2,44,0.008,-0.129,1.703,0,0,0,0,0
33.447,1783037690.903,1931,2,44,0.006,-0.135,1.703,0,0,0,0,0
33.624,1783037691.080,1932,2,44,0.005,-0.129,1.706,0,0,0,0,0
33.625,1783037691.081,1933,2,44,0.002,-0.124,1.708,0,0,0,0,0
33.643,1783037691.099,1934,2,44,0.002,-0.119,1.71,0,0,0,0,0
33.779,1783037691.234,1935,2,44,0.002,-0.116,1.711,0,0,0,0,0
33.779,1783037691.235,1936,2,44,0.0,-0.112,1.711,0,0,0,0,0
33.839,1783037691.295,1937,2,44,0.0,-0.109,1.711,0,0,0,0,0
33.937,1783037691.392,1938,2,44,-0.001,-0.104,1.713,0,0,0,0,0
33.968,1783037691.424,1939,2,44,0.001,-0.102,1.713,0,0,0,0,0
34.346,1783037691.802,1940,2,44,0.004,-0.113,1.713,0,0,0,0,0
34.347,1783037691.803,1941,2,44,0.011,-0.111,1.714,0,0,0,0,0
34.348,1783037691.804,1942,2,44,0.014,-0.12,1.715,0,0,0,0,0
34.359,1783037691.815,1945,2,44,0.016,-0.116,1.719,0,0,0,0,0
34.462,1783037691.918,1946,2,44,0.015,-0.122,1.721,0,0,0,0,0
34.489,1783037691.945,1947,2,44,0.014,-0.134,1.723,0,0,0,0,0
34.654,1783037692.110,1948,2,44,0.022,-0.139,1.725,0,0,0,0,0
34.654,1783037692.110,1949,2,44,0.023,-0.135,1.728,0,0,0,0,0
34.684,1783037692.140,1950,2,44,0.021,-0.129,1.729,0,0,0,0,0
34.751,1783037692.207,1951,2,44,0.02,-0.133,1.729,0,0,0,0,0
34.814,1783037692.270,1952,2,44,0.02,-0.127,1.729,0,0,0,0,0
35.069,1783037692.525,1953,2,44,0.018,-0.133,1.73,0,0,0,0,0
35.070,1783037692.526,1954,2,44,0.019,-0.142,1.732,0,0,0,0,0
35.070,1783037692.526,1955,2,44,0.021,-0.152,1.732,0,0,0,0,0
35.074,1783037692.530,1956,2,44,0.019,-0.157,1.733,0,0,0,0,0
35.165,1783037692.621,1957,2,44,0.024,-0.163,1.732,0,0,0,0,0
35.205,1783037692.661,1958,2,44,0.024,-0.164,1.734,0,0,0,0,0
35.370,1783037692.826,1959,2,44,0.025,-0.169,1.734,0,0,0,0,0
35.371,1783037692.827,1960,2,44,0.026,-0.174,1.735,0,0,0,0,0
35.400,1783037692.856,1961,2,44,0.027,-0.173,1.736,0,0,0,0,0
35.530,1783037692.986,1962,2,44,0.027,-0.168,1.737,0,0,0,0,0
35.531,1783037692.987,1963,2,43,0.028,-0.164,1.74,0,0,0,0,0
35.677,1783037693.133,1964,2,43,0.028,-0.177,1.739,0,0,0,0,0
35.678,1783037693.134,1965,2,43,0.027,-0.185,1.74,0,0,0,0,0
35.725,1783037693.181,1966,2,43,0.025,-0.189,1.74,0,0,0,0,0
35.791,1783037693.246,1967,2,43,0.026,-0.192,1.742,0,0,0,0,0
35.980,1783037693.436,1968,2,43,0.026,-0.185,1.745,0,0,0,0,0
35.981,1783037693.436,1969,2,43,0.028,-0.178,1.744,0,0,0,0,0
35.986,1783037693.442,1970,2,43,0.026,-0.172,1.745,0,0,0,0,0
36.087,1783037693.543,1971,2,43,0.026,-0.171,1.747,0,0,0,0,0
36.116,1783037693.572,1972,2,43,0.025,-0.172,1.747,0,0,0,0,0
36.292,1783037693.748,1973,2,43,0.025,-0.167,1.749,0,0,0,0,0
36.293,1783037693.749,1974,2,43,0.033,-0.168,1.749,0,0,0,0,0
36.311,1783037693.767,1975,2,43,0.037,-0.165,1.751,0,0,0,0,0
36.394,1783037693.850,1976,2,43,0.047,-0.165,1.751,0,0,0,0,0
36.441,1783037693.897,1977,2,43,0.056,-0.172,1.751,0,0,0,0,0
36.599,1783037694.055,1978,2,43,0.059,-0.183,1.75,0,0,0,0,0
36.600,1783037694.056,1979,2,43,0.071,-0.184,1.752,0,0,0,0,0
36.636,1783037694.092,1980,2,43,0.071,-0.178,1.754,0,0,0,0,0
36.796,1783037694.252,1981,2,43,0.082,-0.175,1.753,0,0,0,0,0
36.797,1783037694.253,1982,2,43,0.093,-0.169,1.757,0,0,0,0,0
36.831,1783037694.287,1983,2,43,0.1,-0.177,1.759,0,0,0,0,0
37.008,1783037694.464,1984,2,43,0.101,-0.178,1.76,0,0,0,0,0
37.009,1783037694.465,1985,2,43,0.113,-0.186,1.76,0,0,0,0,0
37.027,1783037694.483,1986,2,43,0.123,-0.189,1.763,0,0,0,0,0
37.111,1783037694.567,1987,2,43,0.122,-0.2,1.764,0,0,0,0,0
37.157,1783037694.613,1988,2,43,0.127,-0.209,1.764,0,0,0,0,0
37.315,1783037694.771,1989,2,43,0.133,-0.218,1.763,0,0,0,0,0
37.316,1783037694.772,1990,2,43,0.142,-0.227,1.764,0,0,0,0,0
37.352,1783037694.808,1991,2,43,0.155,-0.233,1.765,0,0,0,0,0
37.521,1783037694.977,1992,2,43,0.156,-0.23,1.765,0,0,0,0,0
37.522,1783037694.978,1993,2,43,0.162,-0.235,1.765,0,0,0,0,0
37.547,1783037695.003,1994,2,43,0.155,-0.244,1.766,0,0,0,0,0
37.726,1783037695.182,1995,2,43,0.149,-0.24,1.768,0,0,0,0,0
37.726,1783037695.182,1996,2,43,0.147,-0.232,1.767,0,0,0,0,0
37.742,1783037695.198,1997,2,43,0.143,-0.232,1.767,0,0,0,0,0
37.808,1783037695.264,1998,2,43,0.146,-0.232,1.767,0,0,0,0,0
37.941,1783037695.397,1999,2,43,0.144,-0.234,1.769,0,0,0,0,0
37.941,1783037695.397,2000,2,43,0.139,-0.233,1.77,0,0,0,0,0
38.003,1783037695.459,2001,2,43,0.138,-0.236,1.77,0,0,0,0,0
38.135,1783037695.591,2002,2,43,0.134,-0.24,1.772,0,0,0,0,0
38.136,1783037695.592,2003,2,43,0.132,-0.247,1.774,0,0,0,0,0
38.237,1783037695.693,2004,2,43,0.127,-0.239,1.776,0,0,0,0,0
38.263,1783037695.719,2005,2,43,0.13,-0.24,1.775,0,0,0,0,0
38.442,1783037695.898,2006,2,43,0.135,-0.247,1.777,0,0,0,0,0
38.443,1783037695.899,2007,2,43,0.141,-0.245,1.778,0,0,0,0,0
38.458,1783037695.914,2008,2,43,0.138,-0.252,1.78,0,0,0,0,0
38.544,1783037696.000,2009,2,43,0.136,-0.244,1.78,0,0,0,0,0
38.589,1783037696.045,2010,2,43,0.134,-0.245,1.78,0,0,0,0,0
38.749,1783037696.205,2011,2,43,0.139,-0.245,1.78,0,0,0,0,0
38.750,1783037696.206,2012,2,43,0.14,-0.252,1.782,0,0,0,0,0
38.784,1783037696.240,2013,2,43,0.138,-0.247,1.782,0,0,0,0,0
38.849,1783037696.305,2014,2,43,0.144,-0.242,1.784,0,0,0,0,0
39.257,1783037696.713,2015,2,43,0.142,-0.246,1.785,0,0,0,0,0
39.257,1783037696.713,2016,2,43,0.142,-0.248,1.785,0,0,0,0,0
39.257,1783037696.713,2017,2,43,0.152,-0.254,1.786,0,0,0,0,0
39.304,1783037696.760,2021,2,43,0.176,-0.278,1.785,0,0,0,0,0
39.479,1783037696.935,2022,2,43,0.171,-0.286,1.785,0,0,0,0,0
39.480,1783037696.936,2023,2,43,0.163,-0.291,1.786,0,0,0,0,0
39.500,1783037696.956,2024,2,44,0.159,-0.283,1.789,0,0,0,0,0
39.672,1783037697.127,2025,2,44,0.156,-0.275,1.789,0,0,0,0,0
39.672,1783037697.128,2026,2,44,0.151,-0.263,1.789,0,0,0,0,0
39.695,1783037697.151,2027,2,44,0.156,-0.266,1.79,0,0,0,0,0
39.789,1783037697.245,2028,2,44,0.158,-0.27,1.792,0,0,0,0,0
39.827,1783037697.283,2029,2,44,0.153,-0.268,1.792,0,0,0,0,0
39.978,1783037697.434,2030,2,44,0.151,-0.26,1.792,0,0,0,0,0
39.979,1783037697.435,2031,2,44,0.16,-0.262,1.793,0,0,0,0,0
40.023,1783037697.479,2032,2,44,0.156,-0.255,1.795,0,0,0,0,0
40.085,1783037697.541,2033,2,44,0.151,-0.254,1.797,0,0,0,0,0
40.151,1783037697.606,2034,2,44,0.146,-0.262,1.797,0,0,0,0,0
40.285,1783037697.741,2035,2,44,0.143,-0.27,1.796,0,0,0,0,0
40.286,1783037697.742,2036,2,44,0.14,-0.271,1.799,0,0,0,0,0
40.388,1783037697.844,2037,2,44,0.133,-0.266,1.8,0,0,0,0,0
40.411,1783037697.867,2038,2,44,0.124,-0.259,1.803,0,0,0,0,0
40.476,1783037697.932,2039,2,44,0.116,-0.251,1.803,0,0,0,0,0
40.642,1783037698.098,2040,2,44,0.113,-0.242,1.803,0,0,0,0,0
40.643,1783037698.099,2041,2,44,0.108,-0.234,1.804,0,0,0,0,0
40.671,1783037698.127,2042,2,44,0.104,-0.226,1.803,0,0,0,0,0
40.736,1783037698.192,2043,2,44,0.1,-0.22,1.805,0,0,0,0,0
40.809,1783037698.265,2044,2,44,0.096,-0.21,1.805,0,0,0,0,0
40.870,1783037698.326,2045,2,44,0.09,-0.204,1.807,0,0,0,0,0
41.002,1783037698.458,2046,2,44,0.088,-0.204,1.808,0,0,0,0,0
41.003,1783037698.459,2047,2,44,0.084,-0.197,1.81,0,0,0,0,0
41.062,1783037698.518,2048,2,44,0.081,-0.191,1.812,0,0,0,0,0
41.207,1783037698.663,2049,2,44,0.08,-0.185,1.813,0,0,0,0,0
41.208,1783037698.664,2050,2,44,0.078,-0.18,1.813,0,0,0,0,0
41.257,1783037698.713,2051,2,44,0.077,-0.177,1.815,0,0,0,0,0
41.448,1783037698.904,2052,2,44,0.078,-0.181,1.812,0,0,0,0,0
41.449,1783037698.905,2053,2,44,0.076,-0.191,1.815,0,0,0,0,0
41.452,1783037698.908,2054,2,44,0.074,-0.204,1.818,0,0,0,0,0
41.617,1783037699.073,2055,2,43,0.072,-0.204,1.816,0,0,0,0,0
41.618,1783037699.074,2056,2,43,0.068,-0.215,1.816,0,0,0,0,0
41.648,1783037699.104,2057,2,43,0.072,-0.217,1.817,0,0,0,0,0
41.714,1783037699.170,2058,2,43,0.071,-0.223,1.819,0,0,0,0,0
41.829,1783037699.284,2059,2,43,0.068,-0.224,1.82,0,0,0,0,0
41.843,1783037699.299,2060,2,43,0.067,-0.214,1.819,0,0,0,0,0
42.021,1783037699.477,2061,2,43,0.063,-0.207,1.819,0,0,0,0,0
42.022,1783037699.478,2062,2,43,0.062,-0.207,1.819,0,0,0,0,0
42.038,1783037699.494,2063,2,43,0.061,-0.202,1.821,0,0,0,0,0
42.193,1783037699.649,2064,2,43,0.054,-0.195,1.821,0,0,0,0,0
42.194,1783037699.650,2065,2,43,0.05,-0.189,1.822,0,0,0,0,0
42.234,1783037699.690,2066,2,43,0.048,-0.201,1.822,0,0,0,0,0
42.344,1783037699.800,2067,2,43,0.051,-0.204,1.823,0,0,0,0,0
42.363,1783037699.819,2068,2,43,0.063,-0.205,1.822,0,0,0,0,0
42.428,1783037699.884,2069,2,43,0.076,-0.202,1.823,0,0,0,0,0
42.493,1783037699.949,2070,2,43,0.07,-0.198,1.824,0,0,0,0,0
42.641,1783037700.097,2071,2,44,0.068,-0.197,1.825,0,0,0,0,0
42.642,1783037700.098,2072,2,44,0.076,-0.194,1.827,0,0,0,0,0
42.689,1783037700.145,2073,2,44,0.089,-0.193,1.826,0,0,0,0,0
42.822,1783037700.278,2074,2,44,0.099,-0.204,1.826,0,0,0,0,0
42.823,1783037700.279,2075,2,44,0.105,-0.204,1.826,0,0,0,0,0
43.012,1783037700.468,2076,2,44,0.111,-0.203,1.826,0,0,0,0,0
43.013,1783037700.469,2077,2,44,0.113,-0.212,1.825,0,0,0,0,0
43.014,1783037700.470,2078,2,44,0.124,-0.214,1.826,0,0,0,0,0
43.153,1783037700.609,2079,2,44,0.134,-0.222,1.825,0,0,0,0,0
43.153,1783037700.609,2080,2,44,0.145,-0.23,1.827,0,0,0,0,0
43.209,1783037700.665,2081,2,44,0.157,-0.235,1.827,0,0,0,0,0
43.460,1783037700.916,2082,2,44,0.156,-0.241,1.828,0,0,0,0,0
43.461,1783037700.917,2083,2,44,0.167,-0.24,1.828,0,0,0,0,0
43.461,1783037700.917,2084,2,44,0.175,-0.246,1.83,0,0,0,0,0
43.469,1783037700.925,2085,2,44,0.186,-0.255,1.831,0,0,0,0,0
43.535,1783037700.991,2086,2,44,0.196,-0.264,1.832,0,0,0,0,0
