t_s,seq,gx_dps,gy_dps,gz_dps,cmd_roll,cmd_pitch,cmd_yaw,m0,m1,m2,m3
0.065,17414,-0.03,0.04,0.04,0.0,-0.0,-0.0,150,150,150,150
0.130,17427,0.03,0.04,-0.02,-0.0,-0.0,0.0,150,150,150,150
0.195,17440,-0.03,0.04,-0.02,0.0,-0.0,0.0,150,150,150,150
0.260,17453,-0.03,-0.02,0.10,0.0,0.0,-0.0,150,150,150,150
0.325,17466,0.03,0.10,-0.02,-0.0,-0.0,0.0,150,150,150,150
0.390,17479,0.03,0.04,-0.02,-0.0,-0.0,0.0,150,150,150,150
0.455,17492,-0.10,0.04,-0.02,0.0,-0.0,0.0,150,150,150,150
0.520,17505,-0.10,-0.02,-0.02,0.0,0.0,0.0,150,150,150,150
0.585,17518,-0.03,0.04,0.04,0.0,-0.0,-0.0,150,150,150,150
0.650,17531,-0.16,-0.02,-0.02,0.1,0.0,0.0,150,150,150,150
0.716,17544,-0.03,0.16,-0.02,0.0,-0.1,0.0,150,150,150,150
0.781,17557,0.03,-0.08,-0.02,-0.0,0.0,0.0,150,150,150,150
0.846,17570,-0.03,-0.02,0.04,0.0,0.0,-0.0,150,150,150,150
0.911,17583,-0.03,-0.02,-0.02,0.0,0.0,0.0,150,150,150,150
0.976,17596,-0.03,0.04,-0.08,0.0,-0.0,0.0,150,150,150,150
1.041,17609,0.03,0.10,0.04,-0.0,-0.0,-0.0,150,150,150,150
1.106,17622,0.03,-0.02,0.04,-0.0,0.0,-0.0,150,150,150,150
1.171,17635,-0.03,-0.02,-0.02,0.0,0.0,0.0,150,150,150,150
1.236,17648,0.03,0.10,-0.08,-0.0,-0.0,0.0,150,150,150,150
1.301,17661,0.03,0.04,-0.08,-0.0,-0.0,0.0,150,150,150,150
1.366,17674,-0.03,0.16,0.04,0.0,-0.1,-0.0,150,150,150,150
1.431,17687,-0.10,0.10,-0.15,0.0,-0.0,0.1,150,150,150,150
1.496,17700,-0.03,-0.08,-0.08,0.0,0.0,0.0,150,150,150,150
1.561,17713,0.03,-0.08,0.04,-0.0,0.0,-0.0,150,150,150,150
1.627,17726,-0.03,0.04,0.10,0.0,-0.0,-0.0,150,150,150,150
1.692,17739,-0.10,-0.02,-0.02,0.0,0.0,0.0,150,150,150,150
1.757,17752,-0.03,-0.02,-0.02,0.0,0.0,0.0,150,150,150,150
1.822,17765,0.03,-0.02,-0.02,-0.0,0.0,0.0,150,150,150,150
1.887,17778,0.03,0.10,-0.02,-0.0,-0.0,0.0,150,150,150,150
1.952,17791,0.03,0.04,0.04,-0.0,-0.0,-0.0,150,150,150,150
2.017,17804,0.03,-0.08,-0.02,-0.0,0.0,0.0,150,150,150,150
2.082,17817,-0.10,0.04,-0.02,0.0,-0.0,0.0,150,150,150,150
2.147,17830,-0.16,-0.08,-0.02,0.1,0.0,0.0,150,150,150,150
2.212,17843,-0.16,0.04,-0.02,0.1,-0.0,0.0,150,150,150,150
2.277,17856,-0.03,0.04,-0.02,0.0,-0.0,0.0,150,150,150,150
2.342,17869,-0.16,0.10,-0.02,0.1,-0.0,0.0,150,150,150,150
2.407,17882,-0.03,-0.02,0.04,0.0,0.0,-0.0,150,150,150,150
2.472,17895,-0.10,0.16,-0.02,0.0,-0.1,0.0,150,150,150,150
2.538,17908,0.03,0.04,0.16,-0.0,-0.0,-0.1,150,150,150,150
2.603,17921,-0.03,0.04,0.04,0.0,-0.0,-0.0,150,150,150,150
2.668,17934,-0.03,-0.02,0.10,0.0,0.0,-0.0,150,150,150,150
2.733,17947,-0.03,0.10,0.04,0.0,-0.0,-0.0,150,150,150,150
2.798,17960,-0.10,-0.02,0.04,0.0,0.0,-0.0,150,150,150,150
2.863,17973,-0.10,-0.02,0.10,0.0,0.0,-0.0,150,150,150,150
2.928,17986,-0.03,-0.02,0.04,0.0,0.0,-0.0,150,150,150,150
2.993,17999,0.03,-0.02,0.04,-0.0,0.0,-0.0,150,150,150,150
3.058,18012,-0.03,-0.02,0.04,0.0,0.0,-0.0,150,150,150,150
3.123,18025,0.03,-0.14,0.04,-0.0,0.1,-0.0,150,150,150,150
3.188,18038,-0.10,0.10,0.04,0.0,-0.0,-0.0,150,150,150,150
3.253,18051,0.03,0.10,0.04,-0.0,-0.0,-0.0,150,150,150,150
3.318,18064,-0.16,0.04,-0.02,0.1,-0.0,0.0,150,150,150,150
3.383,18077,-0.03,-0.02,-0.02,0.0,0.0,0.0,150,150,150,150
3.448,18090,-0.10,-0.02,-0.02,0.0,0.0,0.0,150,150,150,150
3.513,18103,-0.16,0.16,0.10,0.1,-0.1,-0.0,150,150,150,150
3.579,18116,0.03,0.04,0.04,-0.0,-0.0,-0.0,150,150,150,150
3.644,18129,-0.03,-0.14,-0.08,0.0,0.1,0.0,150,150,150,150
3.709,18142,-0.10,-0.02,0.10,0.0,0.0,-0.0,150,150,150,150
3.774,18155,0.03,-0.14,0.04,-0.0,0.1,-0.0,150,150,150,150
3.839,18168,-0.10,-0.02,0.04,0.0,0.0,-0.0,150,150,150,150
3.904,18181,-0.10,-0.14,-0.02,0.0,0.1,0.0,150,150,150,150
3.969,18194,-0.16,0.04,-0.02,0.1,-0.0,0.0,150,150,150,150
4.034,18207,0.09,-0.02,0.04,-0.0,0.0,-0.0,150,150,150,150
4.099,18220,-0.03,-0.02,-0.02,0.0,0.0,0.0,150,150,150,150
4.164,18233,-0.10,-0.02,-0.02,0.0,0.0,0.0,150,150,150,150
4.229,18246,0.03,0.04,-0.02,-0.0,-0.0,0.0,150,150,150,150
4.294,18259,-0.03,-0.08,-0.02,0.0,0.0,0.0,150,150,150,150
4.360,18272,-0.16,-0.02,-0.27,0.1,0.0,0.1,150,150,150,150
4.424,18285,-0.22,-0.08,-0.08,0.1,0.0,0.0,150,150,150,150
4.490,18298,-0.10,0.04,0.04,0.0,-0.0,-0.0,150,150,150,150
4.555,18311,0.03,0.04,-0.08,-0.0,-0.0,0.0,150,150,150,150
4.620,18324,0.03,-0.26,0.04,-0.0,0.1,-0.0,150,150,150,150
4.685,18337,-0.28,0.47,-0.08,0.1,-0.2,0.0,150,150,150,150
4.750,18350,0.03,-0.26,-0.08,-0.0,0.1,0.0,150,150,150,150
4.815,18363,-0.03,0.04,-0.02,0.0,-0.0,0.0,150,150,150,150
4.880,18376,-0.10,-0.02,0.10,0.0,0.0,-0.0,150,150,150,150
4.945,18389,0.03,-0.02,0.10,-0.0,0.0,-0.0,150,150,150,150
5.010,18402,0.03,0.10,-0.08,-0.0,-0.0,0.0,150,150,150,150
5.075,18415,-0.10,-0.02,0.04,0.0,0.0,-0.0,150,150,150,150
5.140,18428,0.03,0.04,-0.02,-0.0,-0.0,0.0,150,150,150,150
5.205,18441,0.03,-0.08,-0.02,-0.0,0.0,0.0,150,150,150,150
5.270,18454,-0.03,0.10,0.16,0.0,-0.0,-0.1,150,150,150,150
5.335,18467,-0.10,-0.02,-0.08,0.0,0.0,0.0,150,150,150,150
5.401,18480,0.09,-0.08,0.10,-0.0,0.0,-0.0,150,150,150,150
5.466,18493,-0.28,0.10,-0.02,0.1,-0.0,0.0,150,150,150,150
5.531,18506,-0.03,-0.08,-0.02,0.0,0.0,0.0,150,150,150,150
5.596,18519,0.03,-0.02,0.04,-0.0,0.0,-0.0,150,150,150,150
5.661,18532,-0.03,0.10,0.10,0.0,-0.0,-0.0,150,150,150,150
5.726,18545,-0.16,0.04,-0.02,0.1,-0.0,0.0,150,150,150,150
5.791,18558,-0.10,-0.08,-0.02,0.0,0.0,0.0,150,150,150,150
5.856,18571,-0.03,0.04,0.04,0.0,-0.0,-0.0,150,150,150,150
5.921,18584,-0.16,0.10,0.04,0.1,-0.0,-0.0,150,150,150,150
5.986,18597,-0.10,-0.02,-0.02,0.0,0.0,0.0,150,150,150,150
6.051,18610,0.03,-0.08,0.04,-0.0,0.0,-0.0,150,150,150,150
6.116,18623,-0.10,-0.08,0.04,0.0,0.0,-0.0,150,150,150,150
6.181,18636,-0.03,0.04,0.04,0.0,-0.0,-0.0,150,150,150,150
6.247,18649,-0.03,0.10,0.10,0.0,-0.0,-0.0,150,150,150,150
6.312,18662,-0.03,-0.02,-0.02,0.0,0.0,0.0,150,150,150,150
6.377,18675,-0.10,0.10,0.04,0.0,-0.0,-0.0,150,150,150,150
6.442,18688,0.03,0.10,-0.02,-0.0,-0.0,0.0,150,150,150,150
6.507,18701,-0.10,-0.02,0.04,0.0,0.0,-0.0,150,150,150,150
6.572,18714,-0.03,0.04,0.10,0.0,-0.0,-0.0,150,150,150,150
6.637,18727,0.03,-0.02,-0.02,-0.0,0.0,0.0,150,150,150,150
6.702,18740,-0.03,-0.02,0.04,0.0,0.0,-0.0,150,150,150,150
6.767,18753,-0.10,0.10,0.10,0.0,-0.0,-0.0,150,150,150,150
6.832,18766,0.09,0.10,-0.02,-0.0,-0.0,0.0,150,150,150,150
6.897,18779,-0.10,0.16,0.10,0.0,-0.1,-0.0,150,150,150,150
6.962,18792,-0.16,-0.02,0.04,0.1,0.0,-0.0,150,150,150,150
7.027,18805,-0.10,-0.02,-0.02,0.0,0.0,0.0,150,150,150,150
7.092,18818,0.09,-0.02,-0.08,-0.0,0.0,0.0,150,150,150,150
7.157,18831,-0.10,-0.02,0.04,0.0,0.0,-0.0,150,150,150,150
7.222,18844,-0.10,0.04,-0.08,0.0,-0.0,0.0,150,150,150,150
7.288,18857,-0.03,-0.02,-0.08,0.0,0.0,0.0,150,150,150,150
7.353,18870,-0.03,0.04,-0.08,0.0,-0.0,0.0,150,150,150,150
7.418,18883,-0.10,-0.02,0.04,0.0,0.0,-0.0,150,150,150,150
7.483,18896,0.03,-0.44,0.40,-0.0,0.2,-0.2,150,150,150,150
7.548,18909,-0.34,0.22,-0.15,0.1,-0.1,0.1,150,150,150,150
7.613,18922,-0.10,-0.26,-0.27,0.0,0.1,0.1,150,150,150,150
7.678,18935,-0.34,0.16,-0.21,0.1,-0.1,0.1,150,150,150,150
7.743,18948,-0.10,-0.38,0.22,0.0,0.2,-0.1,150,150,150,150
7.808,18961,-0.58,-0.44,0.16,0.2,0.2,-0.1,150,150,150,150
7.873,18974,-1.19,-1.90,0.22,0.5,0.8,-0.1,150,149,150,151
7.938,18987,-0.82,-0.75,0.10,0.3,0.3,-0.0,150,149,150,151
8.003,19000,0.27,0.10,-0.15,-0.1,-0.0,0.1,150,150,150,150
8.068,19013,0.39,-0.32,-0.21,-0.2,0.1,0.1,150,150,150,150
8.133,19026,0.21,-0.02,0.04,-0.1,0.0,-0.0,150,150,150,150
8.198,19039,0.45,-0.20,-0.02,-0.2,0.1,0.0,150,150,150,150
8.264,19052,-0.34,-0.20,-0.81,0.1,0.1,0.3,150,149,150,150
8.329,19065,0.39,-3.78,-1.54,-0.2,1.5,0.6,149,148,152,151
8.394,19078,-1.19,-6.69,-1.42,0.5,2.7,0.6,148,146,153,153
8.459,19091,-6.04,-7.00,-3.61,2.4,2.8,1.4,151,143,152,154
8.524,19104,-2.52,-6.63,1.07,1.0,2.7,-0.4,148,147,151,154
8.589,19117,-0.70,-10.03,4.29,0.3,4.0,-1.7,145,147,152,156
8.654,19130,-5.62,-18.10,-0.81,2.2,7.2,0.3,145,140,155,159
8.719,19143,-3.07,-21.62,1.01,1.2,8.6,-0.4,142,141,157,160
8.784,19156,-1.01,-14.34,1.56,0.4,5.7,-0.6,144,144,155,157
8.849,19169,-1.85,-20.22,3.98,0.7,8.1,-1.6,141,143,156,160
8.914,19182,-2.70,-15.61,1.19,1.1,6.2,-0.5,144,143,155,158
8.979,19195,2.82,-17.07,4.47,-1.1,6.8,-1.8,140,146,156,157
9.044,19208,-2.70,-17.98,1.31,1.1,7.2,-0.5,143,142,156,159
9.109,19221,-1.19,-20.89,-2.64,0.5,8.4,1.1,143,140,159,158
9.174,19234,0.51,-20.40,0.58,-0.2,8.2,-0.2,141,142,158,158
9.240,19247,-0.88,-20.40,2.83,0.4,8.2,-1.1,141,143,157,160
9.305,19260,2.82,-21.37,-0.21,-1.1,8.5,0.1,140,142,160,157
9.370,19273,1.36,-23.44,0.64,-0.5,9.4,-0.3,140,141,160,159
9.435,19286,2.33,-19.01,3.56,-0.9,7.6,-1.4,140,145,157,158
9.500,19299,4.39,-19.61,6.41,-1.8,7.8,-2.6,138,146,157,159
9.565,19312,-1.13,-15.79,1.98,0.5,6.3,-0.8,143,144,155,158
9.630,19325,-0.10,-13.12,0.70,0.0,5.2,-0.3,145,145,155,156
9.695,19338,-0.03,-15.25,4.53,0.0,6.1,-1.8,142,146,154,158
9.760,19351,-0.70,-17.19,0.40,0.3,6.9,-0.2,143,143,156,157
9.825,19364,0.94,-17.49,1.25,-0.4,7.0,-0.5,142,144,157,157
9.890,19377,1.60,-12.39,-1.54,-0.6,5.0,0.6,145,145,156,154
9.955,19390,4.27,-16.09,0.04,-1.7,6.4,-0.0,142,145,158,155
10.020,19403,4.58,-15.85,-1.79,-1.8,6.3,0.7,143,145,159,154
10.086,19416,-3.13,-19.67,-1.42,1.3,7.9,0.6,144,140,157,159
10.150,19429,-3.13,-11.24,-0.87,1.3,4.5,0.3,147,144,154,155
10.216,19442,-1.85,-4.75,-1.54,0.7,1.9,0.6,149,147,152,152
10.281,19455,-3.13,-2.63,1.19,1.3,1.1,-0.5,150,148,149,153
10.346,19468,-4.40,0.65,-2.09,1.8,-0.3,0.8,153,148,149,151
10.411,19481,-1.31,6.41,-0.45,0.5,-2.6,0.2,153,152,147,148
10.476,19494,0.94,15.03,-1.60,-0.4,-6.0,0.6,156,156,145,143
10.541,19507,1.06,23.70,-0.27,-0.4,-9.5,0.1,159,160,141,140
10.606,19520,5.43,29.71,2.34,-2.2,-11.9,-0.9,159,165,139,137
10.671,19533,3.36,37.05,3.32,-1.3,-14.8,-1.3,162,167,135,135
10.736,19546,1.66,33.65,2.89,-0.7,-13.5,-1.2,162,165,136,137
10.801,19559,2.51,33.65,1.62,-1.0,-13.5,-0.6,162,165,137,136
10.866,19572,-0.16,31.41,-0.08,0.1,-12.6,0.0,163,162,137,137
10.931,19585,-4.89,29.40,-2.82,2.0,-11.8,1.1,165,159,137,139
10.996,19598,-5.13,31.41,-4.34,2.1,-12.6,1.7,166,159,137,138
11.061,19611,-1.61,27.22,-2.09,0.6,-10.9,0.8,162,159,139,139
11.127,19624,-1.55,21.15,-1.42,0.6,-8.5,0.6,160,157,141,142
11.192,19637,0.21,16.00,2.34,-0.1,-6.4,-0.9,155,157,143,144
11.257,19650,0.33,17.70,4.11,-0.1,-7.1,-1.6,155,159,141,144
11.322,19663,5.43,11.81,6.66,-2.2,-4.7,-2.7,150,160,145,146
11.387,19676,2.51,12.11,3.38,-1.0,-4.8,-1.4,152,157,145,145
11.452,19689,-1.01,8.11,0.52,0.4,-3.2,-0.2,153,153,146,147
11.517,19702,3.73,8.41,-0.39,-1.5,-3.4,0.2,152,155,148,145
11.582,19715,3.85,3.38,1.92,-1.5,-1.4,-0.8,149,154,149,148
11.647,19728,0.33,2.04,-0.57,-0.1,-0.8,0.2,151,151,150,149
11.712,19741,1.73,-1.90,2.89,-0.7,0.8,-1.2,147,151,150,151
11.777,19754,1.12,-2.51,-1.06,-0.4,1.0,0.4,149,149,152,150
11.842,19767,0.82,-0.56,0.70,-0.3,0.2,-0.3,149,150,150,150
11.907,19780,-0.64,1.74,-1.12,0.3,-0.7,0.4,151,150,149,149
11.973,19793,-1.37,2.23,-0.02,0.5,-0.9,0.0,151,150,149,150
12.038,19806,-0.03,2.95,-1.54,0.0,-1.2,0.6,152,151,149,148
12.103,19819,-0.16,7.14,0.16,0.1,-2.9,-0.1,153,153,147,147
12.168,19832,2.88,13.75,1.49,-1.2,-5.5,-0.6,154,157,145,144
12.233,19845,2.39,25.46,2.04,-1.0,-10.2,-0.8,158,162,140,140
12.298,19858,3.06,31.47,2.16,-1.2,-12.6,-0.9,160,165,138,137
12.363,19871,1.97,32.13,2.34,-0.8,-12.9,-0.9,161,165,137,137
12.428,19884,1.18,36.26,5.75,-0.5,-14.5,-2.3,162,167,134,137
12.493,19897,-4.95,35.53,0.77,2.0,-14.2,-0.3,166,163,134,138
12.558,19910,-6.89,38.44,2.47,2.8,-15.4,-1.0,167,164,131,138
12.623,19923,-2.89,36.56,3.20,1.2,-14.6,-1.3,165,165,133,138
12.688,19936,-1.49,43.96,5.08,0.6,-17.6,-2.0,166,169,130,135
12.753,19949,-1.61,38.93,2.28,0.6,-15.6,-0.9,165,166,133,136
12.819,19962,-4.95,34.32,1.74,2.0,-13.7,-0.7,165,162,134,139
12.884,19975,-5.74,30.50,1.43,2.3,-12.2,-0.6,164,160,135,141
12.949,19988,-1.25,24.73,8.11,0.5,-9.9,-3.2,157,163,136,144
13.014,20001,-2.28,19.33,0.70,0.9,-7.7,-0.3,158,157,141,143
13.079,20014,-2.34,18.24,0.16,0.9,-7.3,-0.1,158,156,142,144
13.144,20027,-1.37,23.28,1.74,0.5,-9.3,-0.7,159,159,139,142
13.209,20040,1.12,25.64,8.54,-0.4,-10.3,-3.4,156,164,137,143
13.274,20053,-0.64,7.26,0.89,0.3,-2.9,-0.4,153,153,146,148
13.339,20066,-1.43,-3.72,-4.40,0.6,1.5,1.8,151,146,153,150
13.404,20079,3.12,1.07,1.68,-1.2,-0.4,-0.7,149,152,150,149
13.469,20092,3.55,-1.78,2.83,-1.4,0.7,-1.1,147,152,151,150
13.534,20105,4.39,-17.25,0.70,-1.8,6.9,-0.3,141,145,158,155
13.599,20118,1.66,-40.12,-1.91,-0.7,16.0,0.8,134,134,167,165
13.664,20131,-0.52,-37.09,-7.01,0.2,14.8,2.8,138,132,167,162
13.730,20144,2.21,-34.96,4.05,-0.9,14.0,-1.6,134,139,163,165
13.794,20157,5.61,-38.72,-1.36,-2.2,15.5,0.5,133,136,168,163
13.860,20170,9.98,-53.89,0.10,-4.0,21.6,-0.0,124,132,176,168
13.925,20183,4.15,-63.29,-1.18,-1.7,25.3,0.5,123,126,177,173
13.990,20196,5.00,-54.92,-2.33,-2.0,22.0,0.9,127,129,175,169
14.055,20209,0.51,-33.75,-2.94,-0.2,13.5,1.2,137,136,165,162
14.120,20222,1.85,-15.91,-1.06,-0.7,6.4,0.4,143,144,158,155
14.185,20235,-1.67,-15.25,0.52,0.7,6.1,-0.2,144,143,155,157
14.250,20248,-0.64,-17.43,-5.79,0.3,7.0,2.3,146,140,159,155
14.315,20261,-2.70,-15.91,-3.73,1.1,6.4,1.5,146,141,157,156
14.380,20274,0.82,-9.73,0.77,-0.3,3.9,-0.3,145,147,154,154
14.445,20287,0.88,-4.87,0.16,-0.4,1.9,-0.1,148,148,152,152
14.510,20300,-3.01,-2.20,0.52,1.2,0.9,-0.2,150,148,149,152
14.575,20313,0.03,-0.44,-0.39,-0.0,0.2,0.2,150,150,150,150
14.640,20326,-1.07,0.53,1.92,0.4,-0.2,-0.8,150,151,149,151
14.705,20339,-0.03,-2.75,-0.57,0.0,1.1,0.2,149,149,151,151
14.771,20352,0.21,-1.11,-1.06,-0.1,0.4,0.4,150,149,151,150
14.836,20365,2.76,-1.72,-1.18,-1.1,0.7,0.5,149,150,152,149
14.901,20378,-1.92,-2.14,-1.42,0.8,0.9,0.6,150,148,151,151
14.966,20391,5.67,-0.63,-1.97,-2.3,0.3,0.8,148,151,153,147
15.031,20404,7.06,-4.81,-1.24,-2.8,1.9,0.5,146,150,155,149
15.096,20417,15.68,-4.69,-1.36,-6.3,1.9,0.5,142,154,159,145
15.161,20430,26.54,-4.69,1.01,-10.6,1.9,-0.4,137,159,162,142
15.226,20443,33.64,-6.15,-1.54,-13.5,2.5,0.6,135,160,167,138
15.291,20456,36.67,-2.87,4.59,-14.7,1.1,-1.8,132,165,164,138
15.356,20469,47.23,4.71,3.56,-18.9,-1.9,-1.4,132,172,166,131
15.421,20482,47.29,3.99,5.38,-18.9,-1.6,-2.2,131,173,165,132
15.486,20495,41.59,-0.56,3.86,-16.6,0.2,-1.5,132,168,165,135
15.551,20508,51.78,4.77,-1.30,-20.7,-1.9,0.5,132,172,169,127
15.617,20521,40.92,-2.57,6.60,-16.4,1.0,-2.6,130,168,165,137
15.682,20534,43.41,-2.08,3.20,-17.4,0.8,-1.3,131,168,167,135
15.747,20547,29.09,-3.90,10.12,-11.6,1.6,-4.0,133,164,159,144
15.812,20560,26.97,0.35,3.20,-10.8,-0.1,-1.3,138,162,159,140
15.877,20573,18.90,-4.20,11.64,-7.6,1.7,-4.7,136,161,155,149
15.942,20586,19.62,-12.64,16.19,-7.8,5.1,-6.5,131,159,156,154
16.007,20599,12.83,-0.50,4.47,-5.1,0.2,-1.8,143,157,154,147
16.072,20612,15.68,3.20,-2.21,-6.3,-1.3,0.9,146,157,156,142
16.137,20625,11.55,1.19,-1.97,-4.6,-0.5,0.8,147,154,155,144
16.202,20638,0.75,-4.63,-1.79,-0.3,1.9,0.7,149,148,153,151
16.267,20651,-4.83,-0.99,-3.61,1.9,0.4,1.4,153,146,150,151
16.332,20664,-7.74,3.08,-5.92,3.1,-1.2,2.4,157,146,148,149
16.397,20677,-22.67,0.22,-12.23,9.1,-0.1,4.9,164,136,146,154
16.463,20690,-39.11,4.71,-7.74,15.6,-1.9,3.1,171,133,136,161
16.527,20703,-40.08,6.84,-11.99,16.0,-2.7,4.8,174,132,136,159
16.593,20716,-58.16,7.50,-4.94,23.3,-3.0,2.0,178,128,126,168
16.658,20729,-54.95,0.89,-6.28,22.0,-0.4,2.5,175,126,130,169
16.723,20742,-36.38,6.41,4.59,14.6,-2.6,-1.8,165,140,131,164
16.788,20755,-52.15,11.39,-1.91,20.9,-4.6,0.8,176,133,125,166
16.853,20768,-35.71,1.32,-7.56,14.3,-0.5,3.0,168,133,138,161
16.918,20781,-41.72,4.77,-0.93,16.7,-1.9,0.4,169,135,132,164
16.983,20794,-30.55,3.56,2.10,12.2,-1.4,-0.8,163,140,136,162
17.048,20807,-29.10,-2.14,4.84,11.6,0.9,-1.9,159,139,137,164
17.113,20820,-18.18,-11.55,2.77,7.3,4.6,-1.1,152,139,146,163
17.178,20833,-22.73,-10.76,7.57,9.1,4.3,-3.0,152,140,142,166
17.243,20846,-13.08,-5.72,2.65,5.2,2.3,-1.1,152,144,146,159
17.308,20859,-4.04,-0.87,0.46,1.6,0.3,-0.2,151,148,149,152
17.374,20872,1.48,2.59,1.80,-0.6,-1.0,-0.7,150,152,149,149
17.439,20885,-2.22,2.29,-0.57,0.9,-0.9,0.2,152,150,148,150
17.504,20898,0.45,1.38,-2.45,-0.2,-0.6,1.0,151,150,151,148
17.569,20911,-0.10,0.95,-0.45,0.0,-0.4,0.2,151,150,150,149
17.634,20924,-0.88,2.35,-0.51,0.4,-0.9,0.2,151,150,149,149
17.699,20937,2.09,1.26,-1.12,-0.8,-0.5,0.4,150,151,151,148
17.764,20950,1.60,4.05,-3.49,-0.6,-1.6,1.4,152,151,150,146
17.829,20963,0.03,0.16,0.52,-0.0,-0.1,-0.2,150,150,150,150
17.894,20976,-8.35,3.62,-1.42,3.3,-1.4,0.6,155,148,146,151
17.959,20989,-18.84,-0.56,-3.61,7.5,0.2,1.4,159,141,144,156
18.024,21002,-41.48,-7.54,-1.30,16.6,3.0,0.5,164,130,137,169
18.089,21015,-61.13,-8.09,-0.08,24.5,3.2,0.0,171,122,129,178
18.154,21028,-63.02,-10.27,0.40,25.2,4.1,-0.2,171,121,129,179
18.220,21041,-63.14,-12.15,-3.91,25.3,4.9,1.6,172,118,131,179
18.284,21054,-57.56,-5.66,0.16,23.0,2.3,-0.1,171,125,129,175
18.350,21067,-53.49,0.16,9.15,21.4,-0.1,-3.7,168,132,125,175
18.415,21080,-66.60,-5.05,3.26,26.6,2.0,-1.3,173,123,124,180
18.480,21093,-50.64,-0.81,8.24,20.3,0.3,-3.3,167,133,127,174
18.545,21106,-46.33,10.60,19.65,18.5,-4.2,-7.9,165,144,119,172
18.610,21119,-38.02,4.59,10.48,15.2,-1.8,-4.2,163,141,129,168
18.675,21132,-46.88,-1.96,-6.28,18.8,0.8,2.5,170,128,135,167
18.740,21145,-59.80,-4.87,-5.37,23.9,1.9,2.1,174,122,130,174
18.805,21158,-22.42,-0.44,1.62,9.0,0.2,-0.6,158,141,141,160
18.870,21171,-14.48,8.29,8.54,5.8,-3.3,-3.4,156,151,137,156
18.935,21184,-15.81,0.47,1.98,6.3,-0.2,-0.8,156,145,143,157
19.000,21197,-10.71,-0.87,-1.18,4.3,0.3,0.5,154,145,147,154
19.065,21210,1.06,0.35,5.20,-0.4,-0.1,-2.1,148,153,148,152
19.130,21223,12.89,-3.11,0.64,-5.2,1.2,-0.3,143,154,156,146
19.195,21236,22.11,2.71,6.17,-8.8,-1.1,-2.5,140,162,155,143
19.261,21249,35.58,-1.66,7.69,-14.2,0.7,-3.1,132,167,162,140
19.326,21262,59.06,4.05,2.89,-23.6,-1.6,-1.2,127,176,171,126
19.391,21275,74.23,2.83,8.42,-29.7,-1.1,-3.4,118,184,175,123
19.456,21288,86.85,12.30,16.80,-34.7,-4.9,-6.7,113,196,173,117
19.521,21301,80.18,13.09,14.01,-32.1,-5.2,-5.6,118,193,171,118
19.586,21314,61.73,3.99,-1.66,-24.7,-1.6,0.7,128,176,174,123
19.651,21327,41.89,-4.81,-15.88,-16.8,1.9,6.4,138,158,175,129
19.716,21340,44.32,-10.82,-14.30,-17.7,4.3,5.7,134,158,178,131
19.781,21353,45.72,-5.78,-8.04,-18.3,2.3,3.2,133,163,174,131
19.846,21366,44.26,-0.32,2.65,-17.7,0.1,-1.1,131,169,167,133
19.911,21379,38.68,4.47,3.07,-15.5,-1.8,-1.2,135,168,162,134
19.976,21392,16.41,-3.84,3.32,-6.6,1.5,-1.3,141,156,157,146
20.041,21405,7.25,-3.54,1.01,-2.9,1.4,-0.4,145,152,154,149
20.107,21418,13.56,-2.08,-0.21,-5.4,0.8,0.1,144,155,156,145
20.172,21431,8.22,-2.02,5.75,-3.3,0.8,-2.3,144,155,152,150
20.237,21444,5.91,-1.96,4.11,-2.4,0.8,-1.6,145,153,152,150
20.302,21457,1.18,-7.54,3.86,-0.5,3.0,-1.5,145,149,152,154
20.367,21470,3.61,-5.18,0.77,-1.4,2.1,-0.3,146,150,153,151
20.432,21483,2.94,-3.05,2.47,-1.2,1.2,-1.0,147,151,151,151
20.497,21496,5.06,-0.38,1.80,-2.0,0.2,-0.7,147,153,151,149
20.562,21509,3.42,-3.11,-0.45,-1.4,1.2,0.2,148,150,153,150
20.627,21522,2.88,-2.14,-1.85,-1.2,0.9,0.7,149,150,153,149
20.692,21535,3.97,-0.50,0.89,-1.6,0.2,-0.4,148,152,151,149
20.757,21548,5.00,-1.11,-0.93,-2.0,0.4,0.4,148,151,153,148
20.822,21561,2.39,-2.38,-1.66,-1.0,1.0,0.7,149,149,153,149
20.887,21574,5.73,-0.20,0.10,-2.3,0.1,-0.0,148,152,152,148
20.952,21587,3.97,0.22,0.77,-1.6,-0.1,-0.3,148,152,151,149
21.018,21600,-0.16,-0.56,0.46,0.1,0.2,-0.2,150,150,150,150
21.083,21613,0.63,1.13,0.46,-0.3,-0.5,-0.2,150,151,150,149
21.148,21626,2.57,0.77,1.07,-1.0,-0.3,-0.4,149,152,150,149
21.213,21639,-0.03,-1.72,-1.36,0.0,0.7,0.5,150,149,151,150
21.278,21652,1.48,0.47,-0.39,-0.6,-0.2,0.2,150,151,151,149
21.343,21665,-0.03,0.41,-0.63,0.0,-0.2,0.3,150,150,150,150
21.408,21678,2.57,-0.26,0.10,-1.0,0.1,-0.0,149,151,151,149
21.473,21691,1.36,-0.63,0.16,-0.5,0.3,-0.1,149,150,151,150
21.538,21704,2.94,-0.93,0.28,-1.2,0.4,-0.1,148,151,151,149
21.603,21717,0.45,-0.14,1.13,-0.2,0.1,-0.5,149,151,150,150
21.668,21730,0.15,0.22,0.40,-0.1,-0.1,-0.2,150,150,150,150
21.733,21743,-0.46,-0.63,0.58,0.2,0.3,-0.2,150,150,150,151
21.798,21756,1.24,0.71,-0.75,-0.5,-0.3,0.3,150,150,151,149
21.863,21769,0.15,1.01,0.04,-0.1,-0.4,-0.0,150,150,150,150
21.928,21782,-1.73,-1.17,-0.93,0.7,0.5,0.4,151,148,150,151
21.994,21795,-1.73,0.89,-0.69,0.7,-0.4,0.3,151,149,149,150
22.059,21808,0.03,2.83,-0.27,-0.0,-1.1,0.1,151,151,149,149
22.124,21821,0.63,1.56,-0.02,-0.3,-0.6,0.0,150,151,150,149
22.189,21834,-1.31,-0.63,-2.09,0.5,0.3,0.8,151,148,151,150
22.254,21847,-0.10,-0.93,-0.87,0.0,0.4,0.3,150,149,151,150
22.319,21860,0.75,1.38,0.52,-0.3,-0.6,-0.2,150,151,150,149
22.384,21873,-0.10,-0.14,1.43,0.0,0.1,-0.6,149,150,149,151
22.449,21886,-0.52,1.80,-0.51,0.2,-0.7,0.2,151,150,149,149
22.514,21899,-0.22,1.26,-1.18,0.1,-0.5,0.5,151,150,150,149
22.579,21912,-2.58,0.35,0.64,1.0,-0.1,-0.3,151,149,149,151
22.644,21925,-3.19,1.86,-0.08,1.3,-0.7,0.0,152,149,148,150
22.709,21938,-2.10,3.99,-1.66,0.8,-1.6,0.7,153,150,148,149
22.774,21951,2.21,4.41,-0.27,-0.9,-1.8,0.1,151,153,149,147
22.840,21964,-2.95,-4.63,-4.28,1.2,1.9,1.7,151,145,152,151
22.905,21977,-17.27,-2.99,-12.11,6.9,1.2,4.8,161,137,149,153
22.970,21990,-0.46,4.83,-5.43,0.2,-1.9,2.2,154,150,150,146
23.035,22003,1.85,4.35,3.13,-0.7,-1.7,-1.3,150,154,148,149
23.100,22016,-5.92,1.86,3.07,2.4,-0.7,-1.2,152,150,146,153
23.165,22029,-7.80,-3.36,-3.30,3.1,1.3,1.3,153,144,150,153
23.230,22042,-2.64,-3.72,-2.82,1.1,1.5,1.1,151,146,152,151
23.295,22055,-3.01,7.99,3.50,1.2,-3.2,-1.4,153,153,144,149
23.360,22068,-7.56,-0.56,-1.66,3.0,0.2,0.7,153,146,148,153
23.425,22081,-19.03,0.65,-5.06,7.6,-0.3,2.0,160,141,144,155
23.490,22094,-0.52,1.13,1.13,0.2,-0.5,-0.5,150,151,149,150
23.555,22107,-0.46,0.16,0.28,0.2,-0.1,-0.1,150,150,150,150
23.620,22120,-0.58,-0.02,-0.33,0.2,0.0,0.1,150,150,150,150
23.685,22133,-0.58,-0.56,-0.21,0.2,0.2,0.1,150,149,150,150
23.751,22146,0.57,-1.41,0.89,-0.2,0.6,-0.4,149,150,150,151
23.816,22159,0.03,-0.20,0.70,-0.0,0.1,-0.3,150,150,150,150
23.881,22172,-0.16,0.04,-0.02,0.1,-0.0,0.0,150,150,150,150
23.946,22185,-0.16,-0.02,-0.08,0.1,0.0,0.0,150,150,150,150
24.011,22198,-0.10,0.04,-0.02,0.0,-0.0,0.0,150,150,150,150
24.076,22211,-0.10,-0.02,0.04,0.0,0.0,-0.0,150,150,150,150
24.141,22224,-0.22,0.04,0.10,0.1,-0.0,-0.0,150,150,150,150
24.206,22237,-0.10,-0.02,0.10,0.0,0.0,-0.0,150,150,150,150
24.271,22250,0.03,-0.02,0.04,-0.0,0.0,-0.0,150,150,150,150
24.336,22263,-0.22,-0.08,0.04,0.1,0.0,-0.0,150,150,150,150
24.401,22276,-0.03,-0.08,0.04,0.0,0.0,-0.0,150,150,150,150
24.466,22289,-0.10,0.04,-0.08,0.0,-0.0,0.0,150,150,150,150
24.531,22302,-0.10,0.04,0.10,0.0,-0.0,-0.0,150,150,150,150
24.596,22315,-0.22,-0.02,-0.02,0.1,0.0,0.0,150,150,150,150
24.662,22328,-0.16,0.04,0.04,0.1,-0.0,-0.0,150,150,150,150
24.727,22341,-0.03,-0.02,0.04,0.0,0.0,-0.0,150,150,150,150
24.792,22354,-0.28,-0.08,0.04,0.1,0.0,-0.0,150,150,150,150
24.857,22367,-0.16,0.16,0.10,0.1,-0.1,-0.0,150,150,150,150
24.922,22380,-0.16,0.04,-0.02,0.1,-0.0,0.0,150,150,150,150
24.987,22393,0.03,0.10,0.04,-0.0,-0.0,-0.0,150,150,150,150
25.052,22406,-0.03,0.10,-0.02,0.0,-0.0,0.0,150,150,150,150
25.117,22419,-0.10,-0.02,-0.02,0.0,0.0,0.0,150,150,150,150
25.182,22432,-0.10,-0.02,0.04,0.0,0.0,-0.0,150,150,150,150
25.247,22445,-0.10,-0.02,0.04,0.0,0.0,-0.0,150,150,150,150
25.312,22458,-0.16,0.04,-0.15,0.1,-0.0,0.1,150,150,150,150
25.377,22471,-0.28,-0.08,-0.02,0.1,0.0,0.0,150,150,150,150
25.442,22484,-0.10,0.04,-0.02,0.0,-0.0,0.0,150,150,150,150
25.507,22497,-0.10,0.16,0.04,0.0,-0.1,-0.0,150,150,150,150
25.572,22510,-0.10,0.04,-0.08,0.0,-0.0,0.0,150,150,150,150
25.637,22523,0.09,-0.14,0.04,-0.0,0.1,-0.0,150,150,150,150
25.703,22536,-0.03,0.04,0.04,0.0,-0.0,-0.0,150,150,150,150
25.768,22549,-0.22,0.10,0.04,0.1,-0.0,-0.0,150,150,150,150
25.833,22562,-0.10,-0.14,-0.02,0.0,0.1,0.0,150,150,150,150
25.898,22575,-0.10,-0.08,-0.02,0.0,0.0,0.0,150,150,150,150
25.963,22588,-0.16,0.04,-0.02,0.1,-0.0,0.0,150,150,150,150
26.028,22601,-0.16,0.04,-0.02,0.1,-0.0,0.0,150,150,150,150
26.093,22614,-0.03,0.10,-0.02,0.0,-0.0,0.0,150,150,150,150
26.158,22627,-0.10,0.04,0.04,0.0,-0.0,-0.0,150,150,150,150
26.223,22640,-0.22,-0.02,-0.02,0.1,0.0,0.0,150,150,150,150
26.288,22653,-0.10,0.10,0.04,0.0,-0.0,-0.0,150,150,150,150
26.353,22666,-0.10,0.04,-0.08,0.0,-0.0,0.0,150,150,150,150
26.418,22679,-0.03,-0.02,0.04,0.0,0.0,-0.0,150,150,150,150
26.483,22692,-0.10,0.04,0.10,0.0,-0.0,-0.0,150,150,150,150
26.548,22705,-0.16,-0.08,0.04,0.1,0.0,-0.0,150,150,150,150
26.613,22718,-0.16,0.04,0.04,0.1,-0.0,-0.0,150,150,150,150
26.679,22731,-0.10,0.04,-0.02,0.0,-0.0,0.0,150,150,150,150
26.744,22744,-0.10,-0.02,-0.02,0.0,0.0,0.0,150,150,150,150
26.809,22757,-0.10,0.04,-0.08,0.0,-0.0,0.0,150,150,150,150
26.874,22770,-0.16,-0.02,0.04,0.1,0.0,-0.0,150,150,150,150
26.939,22783,-0.03,0.04,-0.08,0.0,-0.0,0.0,150,150,150,150
27.004,22796,-0.22,-0.08,-0.02,0.1,0.0,0.0,150,150,150,150
27.069,22809,-0.03,-0.08,0.10,0.0,0.0,-0.0,150,150,150,150
27.134,22822,-0.10,-0.02,0.10,0.0,0.0,-0.0,150,150,150,150
27.199,22835,-0.22,-0.02,-0.08,0.1,0.0,0.0,150,150,150,150
27.264,22848,-0.16,0.04,0.04,0.1,-0.0,-0.0,150,150,150,150
27.329,22861,-0.16,0.04,0.04,0.1,-0.0,-0.0,150,150,150,150
27.394,22874,-0.10,0.10,-0.02,0.0,-0.0,0.0,150,150,150,150
27.459,22887,-0.16,-0.08,-0.08,0.1,0.0,0.0,150,150,150,150
27.524,22900,-0.16,-0.02,-0.08,0.1,0.0,0.0,150,150,150,150
27.590,22913,-0.10,0.10,0.04,0.0,-0.0,-0.0,150,150,150,150
27.655,22926,-0.16,-0.02,-0.02,0.1,0.0,0.0,150,150,150,150
27.720,22939,-0.16,-0.02,0.04,0.1,0.0,-0.0,150,150,150,150
27.785,22952,-0.28,-0.08,0.10,0.1,0.0,-0.0,150,150,150,150
27.850,22965,-0.22,0.10,0.04,0.1,-0.0,-0.0,150,150,150,150
27.915,22978,-0.10,0.04,-0.02,0.0,-0.0,0.0,150,150,150,150
27.980,22991,-0.10,-0.02,0.04,0.0,0.0,-0.0,150,150,150,150
28.045,23004,-0.03,0.10,-0.08,0.0,-0.0,0.0,150,150,150,150
28.110,23017,-0.10,0.04,0.10,0.0,-0.0,-0.0,150,150,150,150
28.175,23030,0.03,-0.08,-0.02,-0.0,0.0,0.0,150,150,150,150
28.240,23043,-0.03,-0.02,0.04,0.0,0.0,-0.0,150,150,150,150
28.305,23056,-0.10,0.10,-0.02,0.0,-0.0,0.0,150,150,150,150
28.370,23069,-0.16,-0.02,0.04,0.1,0.0,-0.0,150,150,150,150
28.435,23082,-0.16,0.04,-0.02,0.1,-0.0,0.0,150,150,150,150
28.500,23095,-0.16,-0.08,-0.02,0.1,0.0,0.0,150,150,150,150
28.566,23108,-0.22,-0.08,0.04,0.1,0.0,-0.0,150,150,150,150
28.631,23121,-0.16,0.04,-0.02,0.1,-0.0,0.0,150,150,150,150
28.696,23134,-0.10,0.04,-0.02,0.0,-0.0,0.0,150,150,150,150
28.761,23147,-0.10,-0.20,0.04,0.0,0.1,-0.0,150,150,150,150
28.826,23160,-0.16,0.16,0.04,0.1,-0.1,-0.0,150,150,150,150
28.891,23173,-0.22,0.04,-0.08,0.1,-0.0,0.0,150,150,150,150
28.956,23186,-0.10,-0.02,-0.02,0.0,0.0,0.0,150,150,150,150
29.021,23199,-0.10,-0.02,-0.02,0.0,0.0,0.0,150,150,150,150
29.086,23212,-0.16,0.16,0.04,0.1,-0.1,-0.0,150,150,150,150
29.151,23225,-0.22,-0.02,-0.02,0.1,0.0,0.0,150,150,150,150
29.216,23238,-0.10,0.04,0.10,0.0,-0.0,-0.0,150,150,150,150
29.281,23251,-0.28,-0.02,-0.02,0.1,0.0,0.0,150,150,150,150
29.346,23264,-0.10,0.10,-0.08,0.0,-0.0,0.0,150,150,150,150
29.411,23277,-0.10,0.04,-0.02,0.0,-0.0,0.0,150,150,150,150
29.476,23290,-0.03,-0.08,-0.02,0.0,0.0,0.0,150,150,150,150
29.542,23303,-0.10,-0.02,0.04,0.0,0.0,-0.0,150,150,150,150
29.607,23316,-0.16,-0.08,-0.02,0.1,0.0,0.0,150,150,150,150
29.672,23329,-0.10,-0.02,0.04,0.0,0.0,-0.0,150,150,150,150
29.737,23342,-0.16,0.10,-0.02,0.1,-0.0,0.0,150,150,150,150
29.802,23355,-0.16,-0.08,0.04,0.1,0.0,-0.0,150,150,150,150
29.867,23368,-0.16,0.04,-0.02,0.1,-0.0,0.0,150,150,150,150
29.932,23381,-0.10,0.04,-0.02,0.0,-0.0,0.0,150,150,150,150
29.997,23394,-0.10,-0.02,0.04,0.0,0.0,-0.0,150,150,150,150
30.062,23407,-0.16,0.10,0.04,0.1,-0.0,-0.0,150,150,150,150
30.127,23420,-0.22,-0.02,0.04,0.1,0.0,-0.0,150,150,150,150
30.192,23433,-0.16,-0.02,0.04,0.1,0.0,-0.0,150,150,150,150
30.257,23446,-0.16,-0.08,-0.08,0.1,0.0,0.0,150,150,150,150
30.322,23459,-0.16,0.10,0.16,0.1,-0.0,-0.1,150,150,150,150
30.387,23472,-0.10,0.04,0.10,0.0,-0.0,-0.0,150,150,150,150
30.452,23485,-0.03,0.10,0.04,0.0,-0.0,-0.0,150,150,150,150
30.517,23498,-0.10,-0.08,-0.02,0.0,0.0,0.0,150,150,150,150
30.583,23511,1.60,-0.50,-0.15,-0.6,0.2,0.1,149,150,151,150
30.648,23524,0.03,-0.08,1.62,-0.0,0.0,-0.6,149,151,149,151
30.713,23537,-0.28,-0.38,0.10,0.1,0.2,-0.0,150,150,150,150
30.778,23550,-0.22,-0.14,0.10,0.1,0.1,-0.0,150,150,150,150
30.843,23563,-0.28,-0.02,0.22,0.1,0.0,-0.1,150,150,150,150
30.908,23576,-0.22,0.16,-0.02,0.1,-0.1,0.0,150,150,150,150
30.973,23589,-0.10,-0.02,-0.08,0.0,0.0,0.0,150,150,150,150
31.038,23602,-0.16,0.04,0.10,0.1,-0.0,-0.0,150,150,150,150
31.103,23615,-0.34,0.16,0.16,0.1,-0.1,-0.1,150,150,150,150
31.168,23628,0.09,-0.32,-0.08,-0.0,0.1,0.0,150,150,150,150
31.233,23641,0.33,-0.50,-0.02,-0.1,0.2,0.0,150,150,150,150
31.298,23654,-0.16,-0.38,0.16,0.1,0.2,-0.1,150,150,150,150
31.363,23667,-0.82,0.47,-0.33,0.3,-0.2,0.1,151,150,150,150
31.429,23680,-0.28,-0.93,-0.15,0.1,0.4,0.1,150,149,150,150
31.493,23693,0.57,-2.14,-0.02,-0.2,0.9,0.0,149,149,151,151
31.559,23706,-1.25,1.68,1.80,0.5,-0.7,-0.7,150,151,148,151
31.624,23719,-0.10,-0.26,0.52,0.0,0.1,-0.2,150,150,150,150
31.689,23732,1.36,-0.14,-1.79,-0.5,0.1,0.7,150,150,151,149
31.754,23745,-2.64,-0.93,-4.34,1.1,0.4,1.7,152,147,151,150
31.819,23758,-3.37,-4.33,-4.70,1.3,1.7,1.9,151,145,152,151
31.884,23771,0.45,-0.32,-2.64,-0.2,0.1,1.1,151,149,151,149
31.949,23784,-3.31,-1.05,-0.27,1.3,0.4,0.1,151,148,149,152
32.014,23797,0.15,-1.35,-1.72,-0.1,0.5,0.7,150,149,151,150
32.079,23810,1.12,-3.90,-5.00,-0.4,1.6,2.0,150,147,154,149
32.144,23823,2.39,4.23,-15.75,-1.0,-1.7,6.3,157,146,156,141
32.209,23836,9.86,12.42,-30.51,-3.9,-5.0,12.2,163,147,161,129
32.274,23849,6.22,4.59,-32.34,-2.5,-1.8,12.9,162,141,164,133
32.339,23862,-1.01,4.47,-42.24,0.4,-1.8,16.9,169,134,165,132
32.404,23875,-0.46,2.59,-37.62,0.2,-1.0,15.0,166,136,164,134
32.470,23888,1.36,8.47,-37.07,-0.5,-3.4,14.8,168,139,162,131
32.535,23901,-2.16,3.14,-39.87,0.9,-1.3,15.9,168,134,164,134
32.600,23914,-4.40,-1.41,-42.17,1.8,0.6,16.9,168,131,166,135
32.665,23927,-7.68,-0.56,-42.84,3.1,0.2,17.1,170,130,164,136
32.730,23940,-3.37,2.23,-44.66,1.3,-0.9,17.9,170,132,166,133
32.795,23953,-1.01,3.38,-38.11,0.4,-1.4,15.2,167,136,163,134
32.860,23966,0.33,-5.54,-39.99,-0.1,2.2,16.0,164,132,168,136
32.925,23979,1.06,-10.88,-38.41,-0.4,4.4,15.4,161,131,170,139
32.990,23992,4.76,2.65,-36.16,-1.9,-1.1,14.5,164,138,165,133
33.055,24005,6.40,5.81,-32.76,-2.6,-2.3,13.1,163,142,163,132
33.120,24018,0.33,2.47,-35.43,-0.1,-1.0,14.2,165,137,163,135
33.185,24031,-7.68,-8.63,-36.77,3.1,3.5,14.7,164,129,165,142
33.250,24044,-2.10,-2.75,-44.73,0.8,1.1,17.9,168,130,168,134
33.315,24057,-4.22,5.87,-38.96,1.7,-2.3,15.6,170,135,162,134
33.380,24070,2.03,6.96,-43.39,-0.8,-2.8,17.4,169,136,165,129
33.445,24083,-3.61,-6.33,-40.35,1.4,2.5,16.1,165,130,167,138
33.511,24096,-8.65,-6.69,-35.55,3.5,2.7,14.2,165,130,163,142
33.576,24109,-7.01,-4.99,-35.25,2.8,2.0,14.1,165,131,163,141
33.641,24122,-8.65,-1.29,-27.78,3.5,0.5,11.1,164,135,158,143
33.706,24135,-9.32,0.16,-22.62,3.7,-0.1,9.0,163,137,155,145
33.771,24148,-10.35,-2.14,-25.05,4.1,0.9,10.0,163,135,157,145
33.836,24161,-6.16,-2.75,-24.38,2.5,1.1,9.8,161,137,158,144
33.901,24174,-8.71,-6.45,-22.86,3.5,2.6,9.1,160,135,158,147
33.966,24187,-6.77,-1.72,-27.11,2.7,0.7,10.8,163,136,159,143
34.031,24200,2.76,3.68,-31.18,-1.1,-1.5,12.5,163,140,162,135
34.096,24213,4.76,-1.78,-30.39,-1.9,0.7,12.2,160,139,165,137
34.161,24226,-3.67,-13.73,-39.93,1.5,5.5,16.0,162,127,170,141
34.226,24239,-5.50,-14.21,-40.41,2.2,5.7,16.2,163,126,170,142
34.291,24252,-0.52,8.35,-31.85,0.2,-3.3,12.7,166,140,159,134
34.357,24265,4.09,15.63,-28.69,-1.6,-6.3,11.5,166,146,157,131
34.422,24278,8.28,15.51,-39.32,-3.3,-6.2,15.7,169,144,163,125
34.487,24291,-0.82,10.60,-44.79,0.3,-4.2,17.9,172,136,163,128
34.552,24304,5.43,2.95,-34.22,-2.2,-1.2,13.7,163,140,165,133
34.617,24317,3.18,-0.75,-23.95,-1.3,0.3,9.6,158,141,161,139
34.682,24330,5.97,5.20,-25.84,-2.4,-2.1,10.3,160,144,161,135
34.747,24343,5.06,10.17,-24.32,-2.0,-4.1,9.7,162,146,158,134
34.812,24356,9.86,17.03,-15.57,-3.9,-6.8,6.2,159,155,153,133
34.877,24369,9.49,21.94,-8.47,-3.8,-8.8,3.4,158,159,148,134
34.942,24382,7.85,2.71,2.53,-3.1,-1.1,-1.0,147,155,151,147
35.007,24395,3.30,-0.50,8.05,-1.3,0.2,-3.2,145,154,148,152
35.072,24408,-4.95,-1.05,23.42,2.0,0.4,-9.4,142,157,139,162
35.137,24421,-9.38,-3.42,34.41,3.8,1.4,-13.8,139,159,134,169
35.202,24434,-5.13,-13.85,61.93,2.1,5.5,-24.8,122,167,129,182
35.267,24447,6.40,-12.94,53.67,-2.6,5.2,-21.5,121,169,136,174
35.333,24460,13.31,3.20,55.49,-5.3,-1.3,-22.2,124,179,132,166
35.398,24473,12.71,16.97,90.41,-5.1,-6.8,-36.2,116,198,112,174
35.463,24486,6.34,9.02,82.21,-2.5,-3.6,-32.9,118,189,116,177
35.528,24499,8.82,-3.96,92.23,-3.5,1.6,-36.9,108,189,118,185
35.593,24512,8.64,7.44,87.37,-3.5,-3.0,-34.9,115,191,116,179
35.658,24525,-7.50,11.45,79.84,3.0,-4.6,-31.9,126,184,110,180
35.723,24538,-3.55,-3.96,90.17,1.4,1.6,-36.1,114,183,114,189
35.788,24551,-9.56,-11.61,107.48,3.8,4.6,-43.0,106,185,108,201
35.853,24564,-6.65,-7.06,119.26,2.7,2.8,-47.7,102,192,102,203
35.919,24577,-17.63,-0.63,110.09,7.1,0.3,-44.0,113,187,99,201
35.983,24590,6.52,5.08,92.42,-2.6,-2.0,-37.0,112,192,114,182
36.048,24603,-0.58,-4.75,85.37,0.2,1.9,-34.1,114,182,118,186
36.114,24616,5.43,-2.20,89.08,-2.2,0.9,-35.6,111,187,117,184
36.178,24629,-1.19,-3.90,98.13,0.5,1.6,-39.3,110,187,112,191
36.244,24642,14.59,0.89,95.63,-5.8,-0.4,-38.3,106,194,117,182
36.309,24655,16.83,7.20,97.76,-6.7,-2.9,-39.1,107,199,115,179
36.374,24668,23.45,16.91,84.82,-9.4,-6.8,-33.9,113,200,119,168
36.439,24681,8.10,8.54,88.23,-3.2,-3.4,-35.3,115,192,115,179
36.504,24694,14.83,6.35,96.00,-5.9,-2.5,-38.4,108,197,115,180
36.569,24707,-0.76,-1.90,88.89,0.3,0.8,-35.6,114,184,115,187
36.634,24720,1.30,8.05,78.75,-0.5,-3.2,-31.5,121,185,116,178
36.699,24733,1.00,5.02,68.43,-0.4,-2.0,-27.4,124,180,121,175
36.764,24746,-8.10,-4.20,64.05,3.2,1.7,-25.6,126,171,123,181
36.829,24759,-3.19,-2.02,58.28,1.3,0.8,-23.3,127,171,126,175
36.894,24772,7.55,0.77,64.72,-3.0,-0.3,-25.9,121,179,127,173
36.960,24785,3.12,12.42,67.21,-1.2,-5.0,-26.9,127,183,119,171
37.024,24798,5.97,-0.87,60.29,-2.4,0.3,-24.1,123,176,129,172
37.089,24811,3.73,-1.05,50.81,-1.5,0.4,-20.3,128,171,132,169
37.155,24824,7.55,3.50,43.52,-3.0,-1.4,-17.4,131,172,134,163
37.220,24837,11.80,2.35,31.62,-4.7,-0.9,-12.6,134,168,141,157
37.285,24850,-2.95,-6.09,32.17,1.2,2.4,-12.9,136,159,138,166
37.350,24863,-6.53,-1.96,32.96,2.6,0.8,-13.2,139,160,135,167
37.415,24876,-5.80,-1.05,35.20,2.3,0.4,-14.1,138,161,134,167
37.480,24889,-5.56,0.28,36.84,2.2,-0.1,-14.7,138,163,133,167
37.545,24902,-4.16,1.26,28.83,1.7,-0.5,-11.5,141,160,136,163
37.610,24915,1.54,1.68,11.94,-0.6,-0.7,-4.8,145,156,145,153
37.675,24928,-0.10,6.05,6.17,0.0,-2.4,-2.5,150,155,145,150
37.740,24941,1.60,1.07,7.75,-0.6,-0.4,-3.1,147,154,147,152
37.805,24954,1.12,5.02,-0.69,-0.4,-2.0,0.3,152,152,149,147
37.870,24967,-4.89,2.59,-6.34,2.0,-1.0,2.5,156,147,150,148
37.935,24980,-3.37,5.14,-25.17,1.3,-2.1,10.1,163,141,157,139
38.001,24993,-5.37,-3.78,-42.24,2.1,1.5,16.9,168,129,166,137
38.066,25006,-3.92,-7.30,-60.40,1.6,2.9,24.2,173,121,176,130
38.131,25019,-16.42,1.68,-70.05,6.6,-0.7,28.0,185,116,171,128
38.196,25032,-13.44,-1.41,-73.70,5.4,0.6,29.5,184,115,175,126
38.261,25045,-14.17,11.99,-77.46,5.7,-4.8,31.0,191,118,171,120
38.326,25058,-13.02,9.99,-83.54,5.2,-4.0,33.4,193,115,174,118
38.391,25071,-6.28,7.38,-96.29,2.5,-3.0,38.5,194,112,183,111
38.456,25084,-5.62,12.48,-109.96,2.2,-5.0,44.0,201,109,187,103
38.521,25097,-5.56,13.81,-111.47,2.2,-5.5,44.6,202,109,187,102
38.586,25110,-26.19,-0.32,-81.17,10.5,0.1,32.5,193,107,172,128
38.651,25123,-7.38,-0.75,-63.13,3.0,0.3,25.3,178,121,173,128
38.716,25136,4.52,-1.72,-62.34,-1.8,0.7,24.9,172,126,177,124
38.781,25149,4.39,-7.30,-64.16,-1.8,2.9,25.7,171,123,180,125
38.847,25162,12.04,-4.14,-76.73,-4.8,1.7,30.7,174,122,187,116
38.911,25175,1.66,1.01,-77.77,-0.7,-0.4,31.1,181,120,181,118
38.977,25188,0.57,-7.30,-70.66,-0.2,2.9,28.3,175,119,181,124
39.042,25201,-3.07,-9.12,-68.17,1.2,3.6,27.3,175,118,180,128
39.107,25214,-2.16,-1.05,-57.12,0.9,0.4,22.8,173,126,172,128
39.172,25227,1.85,8.47,-26.26,-0.7,-3.4,10.5,163,144,158,135
39.237,25240,13.80,20.73,1.68,-5.5,-8.3,-0.7,152,164,147,137
39.302,25253,10.71,7.20,0.22,-4.3,-2.9,-0.1,149,157,151,143
39.367,25266,-2.40,-5.60,-16.85,1.0,2.2,6.7,155,140,158,146
39.432,25279,-1.13,-7.72,-10.83,0.5,3.1,4.3,152,142,157,149
39.497,25292,0.69,-0.75,0.58,-0.3,0.3,-0.2,149,150,150,150
39.562,25305,3.48,1.44,1.49,-1.4,-0.6,-0.6,149,153,150,149
39.627,25318,0.15,0.83,3.07,-0.1,-0.3,-1.2,149,152,148,151
39.692,25331,1.06,0.71,-2.21,-0.4,-0.3,0.9,151,150,151,148
39.758,25344,-2.16,-1.66,-2.09,0.9,0.7,0.8,151,148,151,151
39.822,25357,-0.16,-1.23,-0.57,0.1,0.5,0.2,150,149,151,150
39.888,25370,0.45,0.41,1.86,-0.2,-0.2,-0.7,149,151,149,150
39.953,25383,0.51,-1.84,1.07,-0.2,0.7,-0.4,149,150,151,151
40.018,25396,0.88,-2.57,2.04,-0.4,1.0,-0.8,148,150,151,151
40.083,25409,2.88,-8.45,5.50,-1.2,3.4,-2.2,143,150,152,154
40.148,25422,9.13,-39.27,13.46,-3.7,15.7,-5.4,125,143,164,167
40.213,25435,6.76,-69.42,16.07,-2.7,27.8,-6.4,113,131,174,181
40.278,25448,-1.07,-70.57,2.34,0.4,28.2,-0.9,121,122,177,180
40.343,25461,-7.74,-87.01,-1.30,3.1,34.8,0.5,119,112,182,187
40.408,25474,-7.38,-82.22,0.22,3.0,32.9,-0.1,120,114,180,186
40.473,25487,1.36,-67.66,2.41,-0.5,27.1,-1.0,121,124,177,177
40.538,25500,0.88,-54.86,11.46,-0.4,21.9,-4.6,123,133,168,176
40.603,25513,6.22,-59.65,2.47,-2.5,23.9,-1.0,123,130,175,172
40.668,25526,3.00,-45.40,3.01,-1.2,18.2,-1.2,129,134,168,168
40.733,25539,4.52,-27.74,3.86,-1.8,11.1,-1.5,136,142,161,161
40.799,25552,0.94,1.26,-1.24,-0.4,-0.5,0.5,151,150,150,149
40.864,25565,-2.89,7.56,-3.49,1.2,-3.0,1.4,156,150,147,147
40.929,25578,2.51,24.91,-1.06,-1.0,-10.0,0.4,159,161,141,139
40.994,25591,3.00,59.98,-1.91,-1.2,-24.0,0.8,174,174,128,124
41.059,25604,-1.98,91.34,-3.49,0.8,-36.5,1.4,189,184,114,113
41.124,25617,2.27,82.12,-17.94,-0.9,-32.8,7.2,189,177,125,109
41.189,25630,-4.28,82.30,-10.71,1.7,-32.9,4.3,189,177,120,115
41.254,25643,-9.01,88.37,-9.62,3.6,-35.3,3.8,193,178,115,114
41.319,25656,5.73,58.64,2.10,-2.3,-23.5,-0.8,170,177,128,125
41.384,25669,2.51,28.19,1.25,-1.0,-11.3,-0.5,160,163,139,138
41.449,25682,-0.88,4.41,-3.06,0.4,-1.8,1.2,153,150,149,147
41.514,25695,-1.73,10.36,-5.79,0.7,-4.1,2.3,157,151,147,144
41.579,25708,0.21,25.95,-2.03,-0.1,-10.4,0.8,161,160,141,139
41.645,25721,0.51,40.93,-5.13,-0.2,-16.4,2.1,168,165,136,131
41.710,25734,6.88,71.26,-0.08,-2.8,-28.5,0.0,176,181,124,119
41.775,25747,6.28,96.32,0.34,-2.5,-38.5,-0.1,186,191,114,109
41.840,25760,1.12,105.11,0.89,-0.4,-42.0,-0.4,191,193,108,108
41.905,25773,-3.98,94.68,-2.09,1.6,-37.9,0.8,190,185,111,113
41.970,25786,-9.26,118.89,-6.95,3.7,-47.6,2.8,204,191,102,103
42.035,25799,-12.35,124.28,0.40,4.9,-49.7,-0.2,204,195,95,105
42.100,25812,-12.90,107.06,21.29,5.2,-42.8,-8.5,189,196,94,121
42.165,25825,0.94,55.43,10.18,-0.4,-22.2,-4.1,168,177,124,132
42.230,25838,4.94,15.82,8.11,-2.0,-6.3,-3.2,151,162,142,145
42.295,25851,-1.37,-10.45,0.04,0.5,4.2,-0.0,146,145,154,155
42.360,25864,6.76,-55.83,0.70,-2.7,22.3,-0.3,125,131,175,170
42.425,25877,8.28,-93.44,0.77,-3.3,37.4,-0.3,109,116,190,184
42.491,25890,-4.59,-114.80,-2.27,1.8,45.9,0.9,107,101,195,197
42.555,25903,5.00,-119.71,0.64,-2.0,47.9,-0.3,100,104,200,196
42.621,25916,-10.47,-138.21,-2.51,4.2,55.3,1.0,100,90,202,208
42.686,25929,-37.23,-141.07,0.89,14.9,56.4,-0.4,108,79,191,222
42.751,25942,-22.18,-91.68,-8.16,8.9,36.7,3.3,125,101,181,192
42.816,25955,12.77,-3.78,11.70,-5.1,1.5,-4.7,139,158,152,151
42.881,25968,7.73,4.41,-0.51,-3.1,-1.8,0.2,149,155,152,145
42.946,25981,5.61,-8.15,-5.61,-2.2,3.3,2.2,147,147,158,149
43.011,25994,0.39,-4.51,-0.69,-0.2,1.8,0.3,148,148,152,151
43.076,26007,5.06,2.29,1.92,-2.0,-0.9,-0.8,148,154,150,148
43.141,26020,13.50,0.41,-1.66,-5.4,-0.2,0.7,145,155,156,144
43.206,26033,30.49,-2.45,3.74,-12.2,1.0,-1.5,135,163,162,140
43.271,26046,46.08,-2.99,9.09,-18.4,1.2,-3.6,127,171,166,136
43.336,26059,64.10,-23.31,5.99,-25.6,9.3,-2.4,113,169,183,136
43.402,26072,88.92,-33.08,-12.05,-35.6,13.2,4.8,106,168,204,123
43.466,26085,80.48,-26.65,-11.87,-32.2,10.7,4.7,112,167,198,124
43.532,26098,81.15,-12.52,-6.28,-32.5,5.0,2.5,115,175,190,120
43.597,26111,75.99,-9.36,-7.37,-30.4,3.7,2.9,119,174,187,120
43.662,26124,54.57,-7.00,19.11,-21.8,2.8,-7.6,118,177,167,139
43.727,26137,37.77,3.99,3.62,-15.1,-1.6,-1.4,135,168,162,135
43.792,26150,19.62,9.69,-7.86,-7.8,-3.9,3.1,149,159,157,135
43.857,26163,7.97,8.78,-6.58,-3.2,-3.5,2.6,153,154,152,141
43.922,26176,-8.47,7.69,-7.56,3.4,-3.1,3.0,159,147,147,147
43.987,26189,-25.40,3.14,-6.46,10.2,-1.3,2.6,164,139,141,156
44.052,26202,-74.12,11.33,-3.85,29.6,-4.5,1.5,186,123,117,174
44.117,26215,-113.01,2.04,-1.36,45.2,-0.8,0.5,197,105,105,194
44.182,26228,-131.40,-9.18,4.77,52.6,3.7,-1.9,197,96,99,208
44.247,26241,-120.78,20.12,28.70,48.3,-8.0,-11.5,195,121,82,202
44.312,26254,-17.45,31.22,3.01,7.0,-12.5,-1.2,168,157,129,146
44.377,26267,-8.83,23.52,-0.45,3.5,-9.4,0.2,163,156,137,144
44.443,26280,-2.16,9.08,-2.09,0.9,-3.6,0.8,155,152,146,146
44.508,26293,-8.35,1.19,2.28,3.3,-0.5,-0.9,153,148,145,154
44.573,26306,-19.39,-7.30,3.86,7.8,2.9,-1.5,153,141,144,162
44.638,26319,-37.77,-10.21,-0.45,15.1,4.1,0.2,161,131,139,169
44.703,26332,-69.33,-16.52,4.84,27.7,6.6,-1.9,169,118,127,186
44.768,26345,-86.07,-2.45,5.32,34.4,1.0,-2.1,181,117,114,188
44.833,26358,-102.76,20.30,17.04,41.1,-8.1,-6.8,192,124,94,190
44.898,26371,-74.36,22.00,13.22,29.7,-8.8,-5.3,183,134,106,176
44.963,26384,-113.92,15.94,23.24,45.6,-6.4,-9.3,193,120,89,198
45.028,26397,-82.55,14.48,10.24,33.0,-5.8,-4.1,185,127,107,181
45.093,26410,-61.38,11.27,-2.76,24.6,-4.5,1.1,180,129,122,169
45.158,26423,-53.49,5.38,-3.79,21.4,-2.2,1.5,175,129,128,168
45.223,26436,-13.57,10.54,1.31,5.4,-4.2,-0.5,159,149,140,152
45.289,26449,25.87,-15.37,0.89,-10.3,6.1,-0.4,133,155,166,146
45.354,26462,41.53,-15.73,-4.21,-16.6,6.3,1.7,129,159,175,138
45.419,26475,135.27,-22.83,12.79,-54.1,9.1,-5.1,82,200,208,110
45.484,26488,147.95,-5.90,16.92,-59.2,2.4,-6.8,82,214,205,100
45.549,26501,85.58,-10.45,-1.30,-34.2,4.2,0.5,112,180,189,119
45.614,26514,46.14,-28.53,3.62,-18.5,11.4,-1.4,119,158,178,144
45.679,26527,41.35,-23.31,9.69,-16.5,9.3,-3.9,120,161,172,147
45.744,26540,40.98,-9.48,11.15,-16.4,3.8,-4.5,125,167,166,142
45.809,26553,22.84,-3.11,3.50,-9.1,1.2,-1.4,138,159,159,144
45.874,26566,10.71,-7.78,-1.42,-4.3,3.1,0.6,143,151,158,148
45.939,26579,0.27,-6.51,-4.03,-0.1,2.6,1.6,149,146,154,151
46.004,26592,1.73,-3.42,-2.33,-0.7,1.4,0.9,149,148,153,150
46.069,26605,5.43,4.11,-7.07,-2.2,-1.6,2.8,152,151,153,143
46.134,26618,4.64,4.90,-20.67,-1.9,-2.0,8.3,158,146,158,138
46.199,26631,-4.52,10.60,-45.09,1.8,-4.2,18.0,174,134,162,130
46.264,26644,-5.43,0.71,-69.20,2.2,-0.3,27.7,180,120,175,124
46.330,26657,-12.47,-0.38,-78.13,5.0,0.2,31.3,186,114,176,124
46.395,26670,4.03,-4.14,-59.85,-1.6,1.7,23.9,171,126,177,126
46.460,26683,-0.46,5.20,-44.06,0.2,-2.1,17.6,170,134,165,130
46.525,26696,1.12,19.52,-58.03,-0.4,-7.8,23.2,181,135,166,119
46.590,26709,-4.34,24.61,-68.05,1.7,-9.8,27.2,189,131,166,115
46.655,26722,-8.71,7.56,-76.49,3.5,-3.0,30.6,187,119,174,120
46.720,26735,-9.74,-17.85,-74.67,3.9,7.1,29.9,177,109,183,131
46.785,26748,-12.47,-19.98,-76.19,5.0,8.0,30.5,177,107,183,133
46.850,26761,-9.62,-18.40,-77.77,3.8,7.4,31.1,178,108,185,130
46.915,26774,-15.45,-10.64,-76.49,6.2,4.3,30.6,183,109,179,130
46.980,26787,-13.14,-8.33,-70.96,5.3,3.3,28.4,180,113,176,130
47.045,26800,-16.23,5.38,-76.25,6.5,-2.2,30.5,189,115,172,124
47.110,26813,-2.95,6.96,-52.74,1.2,-2.8,21.1,175,131,167,127
47.175,26826,2.33,-9.85,-22.62,-0.9,3.9,9.0,154,138,164,144
47.240,26839,-4.65,-7.97,-12.29,1.9,3.2,4.9,154,140,156,150
47.306,26852,6.03,-3.23,31.01,-2.4,1.3,-12.4,134,164,141,161
47.371,26865,8.22,12.30,65.39,-3.3,-4.9,-26.2,125,184,122,168
47.436,26878,5.12,17.88,69.21,-2.0,-7.2,-27.7,127,187,117,168
47.501,26891,10.58,18.18,78.02,-4.2,-7.3,-31.2,122,193,116,170
47.566,26904,4.39,-4.33,79.30,-1.8,1.7,-31.7,115,182,122,182
47.631,26917,14.59,-18.10,52.03,-5.8,7.2,-20.8,116,169,142,172
47.696,26930,1.85,-17.79,41.09,-0.7,7.1,-16.4,126,160,141,173
47.761,26943,-1.31,0.04,51.12,0.5,-0.0,-20.4,130,170,129,171
47.826,26956,3.24,15.63,63.08,-1.3,-6.3,-25.2,130,183,120,168
47.891,26969,4.27,18.97,67.45,-1.7,-7.6,-27.0,129,186,117,168
47.956,26982,-4.71,9.26,59.98,1.9,-3.7,-24.0,132,176,120,172
48.021,26995,-4.52,-4.57,49.78,1.8,1.8,-19.9,130,166,130,174
48.087,27008,-11.62,-3.42,49.84,4.6,1.4,-19.9,133,164,127,176
48.151,27021,-4.04,1.98,45.59,1.6,-0.8,-18.2,134,167,129,169
48.217,27034,1.30,9.08,21.36,-0.5,-3.6,-8.5,145,163,138,154
48.282,27047,-3.43,-7.60,7.20,1.4,3.0,-2.9,145,148,149,157
48.347,27060,1.66,-8.75,12.85,-0.7,3.5,-5.1,141,152,149,158
48.412,27073,0.51,-3.29,24.57,-0.2,1.3,-9.8,139,159,142,161
48.477,27086,9.86,0.28,23.72,-3.9,-0.1,-9.5,137,164,144,155
48.542,27099,0.27,-3.05,34.05,-0.1,1.2,-13.6,135,163,138,165
48.607,27112,3.97,-6.51,50.75,-1.6,2.6,-20.3,126,169,134,171
48.672,27125,-5.19,-2.75,85.67,2.1,1.1,-34.3,117,181,115,187
48.737,27138,6.88,9.08,92.17,-2.8,-3.6,-36.9,114,193,112,180
48.802,27151,18.35,2.04,96.61,-7.3,-0.8,-38.6,105,197,118,180
48.867,27164,15.44,12.90,90.35,-6.2,-5.2,-36.1,113,197,115,175
48.933,27177,10.52,7.50,78.63,-4.2,-3.0,-31.5,117,189,120,174
48.997,27190,7.00,3.74,64.30,-2.8,-1.5,-25.7,123,180,126,171
49.062,27203,1.42,3.92,62.35,-0.6,-1.6,-24.9,126,177,124,173
49.128,27216,-4.16,-5.96,67.88,1.7,2.4,-27.2,122,173,124,181
49.193,27229,-1.92,-11.36,74.62,0.8,4.5,-29.8,116,175,124,185
49.258,27242,10.77,-2.08,60.71,-4.3,0.8,-24.3,121,178,131,171
49.323,27255,8.64,0.71,54.52,-3.5,-0.3,-21.8,125,176,131,168
49.388,27268,3.24,4.29,55.37,-1.3,-1.7,-22.1,128,175,127,169
49.453,27281,1.60,5.44,47.23,-0.6,-2.2,-18.9,133,172,130,166
49.518,27294,-1.92,0.10,38.24,0.8,-0.0,-15.3,136,165,134,166
49.583,27307,-4.95,-2.93,28.89,2.0,1.2,-11.6,139,158,138,165
49.648,27320,-6.41,0.89,19.72,2.6,-0.4,-7.9,145,156,139,160
49.713,27333,-4.10,-1.11,22.27,1.6,0.4,-8.9,142,157,140,161
49.778,27346,0.03,-2.32,10.60,-0.0,0.9,-4.2,145,153,147,155
49.843,27359,-0.52,0.10,-14.54,0.2,-0.0,5.8,156,144,156,144
49.908,27372,-2.46,5.08,-53.65,1.0,-2.0,21.5,174,130,168,127
49.974,27385,-17.33,-6.81,-56.33,6.9,2.7,22.5,177,118,168,137
50.039,27398,-9.99,-6.21,-78.07,4.0,2.5,31.2,183,112,180,125
50.104,27411,-10.05,-12.33,-93.44,4.0,4.9,37.4,186,104,188,122
50.169,27424,-16.42,-4.63,-91.92,6.6,1.9,36.8,191,105,182,122
50.234,27437,-2.70,4.17,-84.02,1.1,-1.7,33.6,186,117,181,116
50.299,27450,-2.22,12.18,-80.56,0.9,-4.9,32.2,188,122,176,114
50.364,27463,-4.28,9.51,-71.63,1.7,-3.8,28.7,184,123,173,119
50.429,27476,4.09,-0.81,-59.36,-1.6,0.3,23.7,172,128,176,125
50.494,27489,-1.49,1.13,-52.20,0.6,-0.5,20.9,172,129,170,129
50.559,27502,-11.38,-4.27,-62.40,4.6,1.7,25.0,178,119,172,131
50.624,27515,-10.17,-1.78,-80.62,4.1,0.7,32.2,186,113,179,123
50.689,27528,-4.22,-6.39,-80.74,1.7,2.6,32.3,181,113,183,122
50.754,27541,-8.95,-12.21,-48.13,3.6,4.9,19.3,168,122,171,139
50.819,27554,-2.28,0.47,-29.24,0.9,-0.2,11.7,163,138,161,139
50.884,27567,0.94,3.99,-13.39,-0.4,-1.6,5.4,157,147,154,143
50.950,27580,1.00,1.50,-8.95,-0.4,-0.6,3.6,154,147,153,145
51.015,27593,-7.38,4.90,-6.70,3.0,-2.0,2.7,158,146,148,148
51.080,27606,0.39,3.14,-10.65,-0.2,-1.3,4.3,155,147,153,144
51.145,27619,-3.07,0.53,-9.50,1.2,-0.2,3.8,155,145,152,147
51.210,27632,-8.16,-0.38,-7.25,3.3,0.2,2.9,156,144,150,151
51.275,27645,9.49,1.07,-6.10,-3.8,-0.4,2.4,149,152,156,143
51.340,27658,-0.16,2.35,-6.34,0.1,-0.9,2.5,154,148,152,147
51.405,27671,8.10,2.83,1.07,-3.2,-1.1,-0.4,147,155,152,146
51.470,27684,9.25,12.60,5.26,-3.7,-5.0,-2.1,149,161,147,143
51.535,27697,3.97,19.45,1.25,-1.6,-7.8,-0.5,156,160,143,141
51.600,27710,5.49,6.23,-1.18,-2.2,-2.5,0.5,151,154,150,145
51.665,27723,6.82,0.22,-6.95,-2.7,-0.1,2.8,150,150,155,144
51.731,27736,1.54,-5.78,-7.25,-0.6,2.3,2.9,150,145,156,149
51.796,27749,-16.30,-11.12,-11.38,6.5,4.4,4.6,157,134,152,156
51.861,27762,7.13,-0.99,7.57,-2.9,0.4,-3.0,144,155,150,151
51.926,27775,-3.98,0.83,0.64,1.6,-0.3,-0.3,152,149,148,152
51.991,27788,-0.58,0.22,-0.81,0.2,-0.1,0.3,151,150,150,150
52.056,27801,-0.70,0.16,-0.45,0.3,-0.1,0.2,151,150,150,150
52.121,27814,-0.70,0.04,-0.15,0.3,-0.0,0.1,150,150,150,150
52.186,27827,-0.22,-0.32,-1.00,0.1,0.1,0.4,150,149,150,150
52.251,27840,0.39,-0.14,0.34,-0.2,0.1,-0.1,150,150,150,150
52.316,27853,-0.40,0.28,0.28,0.2,-0.1,-0.1,150,150,150,150
52.381,27866,-0.22,-0.20,0.40,0.1,0.1,-0.2,150,150,150,150
52.446,27879,-0.40,0.04,0.10,0.2,-0.0,-0.0,150,150,150,150
52.511,27892,-0.28,0.04,0.10,0.1,-0.0,-0.0,150,150,150,150
52.577,27905,-0.10,-0.02,0.10,0.0,0.0,-0.0,150,150,150,150
52.641,27918,-0.34,-0.02,0.10,0.1,0.0,-0.0,150,150,150,150
52.707,27931,-0.34,0.16,-0.02,0.1,-0.1,0.0,150,150,150,150
52.772,27944,-0.22,0.10,0.10,0.1,-0.0,-0.0,150,150,150,150
52.837,27957,-0.16,0.04,0.04,0.1,-0.0,-0.0,150,150,150,150
52.902,27970,-0.28,0.10,0.04,0.1,-0.0,-0.0,150,150,150,150
52.967,27983,-0.34,-0.08,0.04,0.1,0.0,-0.0,150,150,150,150
53.032,27996,-0.34,0.04,-0.02,0.1,-0.0,0.0,150,150,150,150
53.097,28009,-0.22,0.04,-0.15,0.1,-0.0,0.1,150,150,150,150
53.162,28022,-0.22,0.04,-0.02,0.1,-0.0,0.0,150,150,150,150
53.227,28035,-0.28,0.04,0.04,0.1,-0.0,-0.0,150,150,150,150
53.292,28048,-0.22,-0.02,-0.08,0.1,0.0,0.0,150,150,150,150
53.357,28061,-0.22,0.10,0.04,0.1,-0.0,-0.0,150,150,150,150
53.422,28074,-0.10,0.04,0.04,0.0,-0.0,-0.0,150,150,150,150
53.487,28087,-0.22,0.16,0.04,0.1,-0.1,-0.0,150,150,150,150
53.552,28100,-0.22,-0.02,0.04,0.1,0.0,-0.0,150,150,150,150
53.618,28113,-0.28,-0.02,-0.15,0.1,0.0,0.1,150,150,150,150
53.683,28126,-0.28,-0.02,0.04,0.1,0.0,-0.0,150,150,150,150
53.748,28139,-0.28,-0.08,0.04,0.1,0.0,-0.0,150,150,150,150
53.813,28152,-0.28,-0.20,-0.02,0.1,0.1,0.0,150,150,150,150
53.878,28165,-0.22,-0.02,0.04,0.1,0.0,-0.0,150,150,150,150
53.943,28178,-0.28,0.22,-0.15,0.1,-0.1,0.1,150,150,150,150
54.008,28191,-0.16,0.10,0.04,0.1,-0.0,-0.0,150,150,150,150
54.073,28204,-0.22,0.04,0.04,0.1,-0.0,-0.0,150,150,150,150
54.138,28217,-0.16,-0.08,0.10,0.1,0.0,-0.0,150,150,150,150
54.203,28230,-0.28,0.04,0.04,0.1,-0.0,-0.0,150,150,150,150
54.268,28243,-0.34,-0.02,-0.02,0.1,0.0,0.0,150,150,150,150
54.333,28256,-0.34,0.04,-0.08,0.1,-0.0,0.0,150,150,150,150
54.398,28269,-0.28,-0.08,0.04,0.1,0.0,-0.0,150,150,150,150
54.464,28282,-0.22,0.04,0.04,0.1,-0.0,-0.0,150,150,150,150
54.529,28295,-0.28,-0.08,-0.02,0.1,0.0,0.0,150,150,150,150
54.594,28308,-0.16,-0.08,-0.08,0.1,0.0,0.0,150,150,150,150
54.659,28321,-0.28,0.10,0.10,0.1,-0.0,-0.0,150,150,150,150
54.724,28334,-0.34,0.04,0.04,0.1,-0.0,-0.0,150,150,150,150
54.789,28347,-0.28,0.04,0.04,0.1,-0.0,-0.0,150,150,150,150
54.854,28360,-0.28,-0.02,-0.02,0.1,0.0,0.0,150,150,150,150
54.919,28373,-0.28,0.04,-0.02,0.1,-0.0,0.0,150,150,150,150
54.984,28386,-0.28,0.04,-0.02,0.1,-0.0,0.0,150,150,150,150
55.049,28399,-0.34,0.10,-0.02,0.1,-0.0,0.0,150,150,150,150
55.114,28412,-0.16,-0.02,0.04,0.1,0.0,-0.0,150,150,150,150
55.179,28425,-0.28,0.10,0.10,0.1,-0.0,-0.0,150,150,150,150
55.244,28438,-0.16,-0.02,0.10,0.1,0.0,-0.0,150,150,150,150
55.309,28451,-0.16,0.04,-0.02,0.1,-0.0,0.0,150,150,150,150
55.375,28464,-0.28,0.10,-0.02,0.1,-0.0,0.0,150,150,150,150
55.440,28477,-0.34,0.04,0.04,0.1,-0.0,-0.0,150,150,150,150
55.505,28490,-0.22,0.10,-0.02,0.1,-0.0,0.0,150,150,150,150
55.570,28503,-0.22,0.10,0.04,0.1,-0.0,-0.0,150,150,150,150
55.635,28516,-0.22,0.16,0.04,0.1,-0.1,-0.0,150,150,150,150
55.700,28529,-0.28,0.10,-0.02,0.1,-0.0,0.0,150,150,150,150
55.765,28542,-0.28,0.04,-0.02,0.1,-0.0,0.0,150,150,150,150
55.830,28555,-0.22,-0.14,0.10,0.1,0.1,-0.0,150,150,150,150
55.895,28568,-0.22,0.04,0.10,0.1,-0.0,-0.0,150,150,150,150
55.960,28581,-0.22,0.10,-0.02,0.1,-0.0,0.0,150,150,150,150
56.025,28594,-0.28,0.04,0.04,0.1,-0.0,-0.0,150,150,150,150
56.090,28607,-0.16,-0.08,-0.02,0.1,0.0,0.0,150,150,150,150
56.155,28620,-0.22,0.04,-0.02,0.1,-0.0,0.0,150,150,150,150
56.221,28633,-0.22,-0.08,0.04,0.1,0.0,-0.0,150,150,150,150
56.286,28646,-0.34,-0.02,-0.02,0.1,0.0,0.0,150,150,150,150
56.351,28659,-0.28,0.10,0.04,0.1,-0.0,-0.0,150,150,150,150
56.416,28672,-0.28,-0.02,-0.02,0.1,0.0,0.0,150,150,150,150
56.481,28685,-0.28,-0.02,-0.08,0.1,0.0,0.0,150,150,150,150
56.546,28698,-0.28,-0.02,-0.02,0.1,0.0,0.0,150,150,150,150
56.611,28711,-0.34,-0.02,0.04,0.1,0.0,-0.0,150,150,150,150
56.676,28724,-0.22,0.10,-0.02,0.1,-0.0,0.0,150,150,150,150
56.741,28737,-0.28,-0.02,0.04,0.1,0.0,-0.0,150,150,150,150
56.806,28750,-0.28,0.04,0.10,0.1,-0.0,-0.0,150,150,150,150
56.871,28763,-0.22,-0.02,0.10,0.1,0.0,-0.0,150,150,150,150
56.936,28776,-0.22,0.10,0.04,0.1,-0.0,-0.0,150,150,150,150
57.001,28789,-0.22,0.10,0.10,0.1,-0.0,-0.0,150,150,150,150
57.067,28802,-0.28,0.16,-0.02,0.1,-0.1,0.0,150,150,150,150
57.132,28815,-0.40,-0.02,0.04,0.2,0.0,-0.0,150,150,150,150
57.197,28828,-0.22,0.10,-0.02,0.1,-0.0,0.0,150,150,150,150
57.262,28841,-0.22,-0.02,-0.02,0.1,0.0,0.0,150,150,150,150
57.327,28854,-0.22,0.10,-0.02,0.1,-0.0,0.0,150,150,150,150
57.392,28867,-0.28,0.22,0.04,0.1,-0.1,-0.0,150,150,150,150
